No,label,dipped,logged,easting,northing,lat,long,Elevation,data amount (daily sample),data amount (annual sample),obsrevation start year,obsrevation end year,obsrevation span,mean_depth,max_depth,min_depth
1,Burton Coggles,http://environment.data.gov.uk/hydrology/id/measures/c7e13884-4a02-4df3-b184-09aea28cf8e8_3_020-gw-dipped-i-mAOD-qualified,http://environment.data.gov.uk/hydrology/id/measures/c7e13884-4a02-4df3-b184-09aea28cf8e8_3_020-gw-logged-i-subdaily-mAOD-qualified,498965,325135,52.814674,-0.533054,71.46416473,1162,40,1974,2019,46,19.32156662,21.77416473,14.47416473
2,Willow Tree Farm,http://environment.data.gov.uk/hydrology/id/measures/ef76b105-7412-45fc-976d-972c1f7e185a_SU29_94-gw-dipped-i-mAOD-qualified,http://environment.data.gov.uk/hydrology/id/measures/ef76b105-7412-45fc-976d-972c1f7e185a_SU29_94-gw-logged-i-subdaily-mAOD-qualified,420565,199295,51.692029,-1.703877,72.23679352,7184,21,2003,2023,21,0.759703753,1.582835187,-0.230164813
3,Plucks Gutter,http://environment.data.gov.uk/hydrology/id/measures/2ec41641-3875-4613-8d97-2ddbe6b1a4ad_644801001-gw-dipped-i-mAOD-qualified,,627131,163892,51.328738,1.258886,2.24781251,227,35,1981,2023,43,1.215521761,2.03781251,0.04781251
4,Wimpole Hall,,http://environment.data.gov.uk/hydrology/id/measures/cd8c5956-30bd-4242-9d18-ce24ce0a3f30_TL35_001-gw-logged-i-subdaily-mAOD-qualified,532774,250554,52.13733,-0.061377,37.54615784,120,21,1998,2020,23,14.25210784,16.00515784,11.34615784
6,Wood Mill Farm,,http://environment.data.gov.uk/hydrology/id/measures/2234c370-5154-4bb5-aae6-b7606120f917_2887-gw-logged-i-subdaily-mAOD-qualified,362675,323245,52.805447,-2.555107,65.72026825,2747,11,2002,2023,22,2.525466102,7.602490472,1.556934917
7,Wood Mill Farm,http://environment.data.gov.uk/hydrology/id/measures/2234c370-5154-4bb5-aae6-b7606120f917_2055GW-gw-dipped-i-mAOD-qualified,,362935,322875,52.802139,-2.551209,61.23064041,402,44,1972,2022,51,1.133103097,1.56064041,0.78064041
8,Wood Mill Farm,http://environment.data.gov.uk/hydrology/id/measures/2234c370-5154-4bb5-aae6-b7606120f917_0445GW-gw-dipped-i-mAOD-qualified,,362675,323225,52.805267,-2.555105,65.82038879,615,47,1973,2021,49,2.541331879,3.46038879,0.98038879
9,Drakelow,,http://environment.data.gov.uk/hydrology/id/measures/94e992cb-3f51-46f8-a7b8-be5368babf90_46654-gw-logged-i-subdaily-mAOD-qualified,423955,320335,52.780061,-1.646296,54.95383453,7816,23,1999,2021,23,6.673464762,12.5392512,0.672938697
10,Tollgate,http://environment.data.gov.uk/hydrology/id/measures/db1d776d-2226-4979-8b90-733c0f352d32_441414004-gw-dipped-i-mAOD-qualified,,564245,171712,51.420622,0.360804,29.95890617,457,44,1980,2023,44,19.77582958,23.26890617,15.89890617
11,Spoondell,http://environment.data.gov.uk/hydrology/id/measures/6aead97c-0040-4e31-889d-01f628faf990-gw-dipped-i-mAOD-qualified,,500937,221009,51.878516,-0.535068,171.292572,419,43,1981,2023,43,43.10880112,48.602572,34.372572
14,North Stoke,http://environment.data.gov.uk/hydrology/id/measures/874af2fb-01ad-49d7-9f19-66ac3f81af32-gw-dipped-i-mAOD-qualified,,504055,111145,50.890425,-0.521948,81.01052094,247,23,2001,2023,23,76.15940353,80.38252094,67.66052094
15,Newlands Corner,,http://environment.data.gov.uk/hydrology/id/measures/8b4ac0c3-2c32-4a99-badc-ffc5f29937a7-gw-logged-i-subdaily-mAOD-qualified,504229,149246,51.232887,-0.50851,171.5480652,3620,14,2009,2022,14,87.38007407,89.6621902,82.89760687
16,Grange Farm West Wratting,http://environment.data.gov.uk/hydrology/id/measures/9a6ac583-0119-47dc-8fb5-ceca5bd64701-gw-dipped-i-mAOD-qualified,,559541,251790,52.141359,0.329989,94.82769775,252,24,1998,2023,26,30.78626918,34.24769775,26.97769775
17,Lea Farm,http://environment.data.gov.uk/hydrology/id/measures/dabd21c4-9859-4ff5-9fef-d3c87b599c13-gw-dipped-i-mAOD-qualified,,380705,303245,52.626608,-2.286477,92.50495148,547,38,1976,2013,38,1.408735758,3.14495148,0.07495148
18,Ingleby,http://environment.data.gov.uk/hydrology/id/measures/457093ef-ac0a-491d-811f-64f6463a16a0-gw-dipped-i-mAOD-qualified,,434675,326585,52.835662,-1.486714,74.46276855,109,11,2012,2023,12,27.22744745,29.49276855,23.44276855
19,Thames Head,http://environment.data.gov.uk/hydrology/id/measures/09a754a3-62c0-4831-abe0-483948ea127f-gw-dipped-i-mAOD-qualified,,398635,198815,51.688083,-2.021137,108.0771637,709,62,1961,2023,63,8.611084716,13.4971637,3.4071637
20,Moss Edge Farm,,http://environment.data.gov.uk/hydrology/id/measures/b9140362-747d-4350-b55f-3b741ec6d8ab-gw-logged-i-subdaily-mAOD-qualified,343971,449275,53.936531,-2.854924,5.284296989,10050,58,1965,2022,58,1.315774076,3.180963656,0.294296989
21,East Leake,http://environment.data.gov.uk/hydrology/id/measures/3a9317a1-7eaa-4539-9bdd-8a187ff17c0d-gw-dipped-i-mAOD-qualified,,455875,328555,52.851593,-1.171711,63.97527313,592,41,1978,2023,46,39.05375286,43.33527313,33.44527313
23,Roman Road,,http://environment.data.gov.uk/hydrology/id/measures/1cdd6e48-7bcb-4f32-b8a8-3500a8a352b0-gw-logged-i-subdaily-mAOD-qualified,346853,242483,52.078135,-2.776907,67.17160034,10817,52,1972,2023,52,6.53921466,10.32560034,1.641954507
24,Hyde Cottages Risby,http://environment.data.gov.uk/hydrology/id/measures/ea15dfcd-00b7-41d9-91b6-c4fc325d9cb8-gw-dipped-i-mAOD-qualified,,581533,266142,52.263468,0.658696,65.16894531,231,23,1998,2023,26,37.1502873,43.08894531,33.41894531
25,North Plantation,http://environment.data.gov.uk/hydrology/id/measures/1495a14c-d5d6-40fc-8af5-bde4773e781d-gw-dipped-i-mAOD-qualified,,578560,259851,52.207941,0.611861,106.7295685,213,23,1998,2023,26,41.10581263,41.7495685,40.4695685
26,Warnford Estate,http://environment.data.gov.uk/hydrology/id/measures/586fd8ee-afc0-46e1-9eda-cea9725c0ea1-gw-dipped-i-mAOD-qualified,,462135,122295,50.9967,-1.115951,68.60781097,123,21,1991,2023,33,0.942445116,1.22781097,0.60781097
27,Kemps Drift,http://environment.data.gov.uk/hydrology/id/measures/9610f73b-f3af-4ede-b4e7-ec615e7ab5a2-gw-dipped-i-mAOD-qualified,,448933,465244,54.080785,-1.253548,11.51841831,348,33,1991,2023,33,0.241346471,1.06841831,-0.18158169
28,Hungerdowns Farm,http://environment.data.gov.uk/hydrology/id/measures/ea3a67b3-3b5f-4ad0-ab68-5e45b7d288a2-gw-dipped-i-mAOD-qualified,,607216,229729,51.927485,1.012393,36.98066711,507,49,1974,2023,50,4.588073422,5.91066711,2.63066711
29,Caldecote Farm,http://environment.data.gov.uk/hydrology/id/measures/83f8884f-6268-46fa-aca9-2ccc0155518a-gw-dipped-i-mAOD-qualified,,574796,303460,52.600799,0.57959,9.904882431,107,23,1995,2023,29,2.567779627,3.134882431,1.604882431
30,Jackaments Bottom,http://environment.data.gov.uk/hydrology/id/measures/961c43fb-11e5-4b9a-8b73-c99d72146663-gw-dipped-i-mAOD-qualified,http://environment.data.gov.uk/hydrology/id/measures/961c43fb-11e5-4b9a-8b73-c99d72146663-gw-logged-i-subdaily-mAOD-qualified,396769,197268,51.674166,-2.048116,105.9273071,12224,51,1973,2023,51,5.478451094,13.5773071,-1.0726929
31,Ponyfield,http://environment.data.gov.uk/hydrology/id/measures/c80a1d8e-8c0d-4547-85c5-dc70147c2cd6-gw-dipped-i-mAOD-qualified,,466175,397145,53.466884,-1.004626,10.55609322,523,48,1976,2023,48,14.21460182,16.72609322,12.51609322
32,Lydeards Hill,http://environment.data.gov.uk/hydrology/id/measures/09ce1fe7-a39d-444b-9c7e-51a841e3d1f3-gw-dipped-i-mAOD-qualified,,317966,134021,51.099598,-3.172945,348.3624268,321,32,1991,2023,33,25.27685048,34.9024268,16.3024268
33,Sutton Top Field Spinney,http://environment.data.gov.uk/hydrology/id/measures/ff0dd675-9937-42a2-a75c-5df6e369004b_3_032-gw-dipped-i-mAOD-qualified,,509075,300045,52.587267,-0.391421,19.1858139,266,26,1998,2023,26,3.883558261,4.9358139,0.8458139
34,Sutton Heath Road,http://environment.data.gov.uk/hydrology/id/measures/ff0dd675-9937-42a2-a75c-5df6e369004b_3_034-gw-dipped-i-mAOD-qualified,,509035,300235,52.588982,-0.391949,22.71084213,263,26,1998,2023,26,3.860804107,4.76084213,2.50084213
35,Woore,http://environment.data.gov.uk/hydrology/id/measures/149446b9-58b0-44d5-afa5-c6f7b8c9c873-gw-dipped-i-mAOD-qualified,,373135,342345,52.977763,-2.401535,148.4021606,366,40,1981,2022,42,12.04669612,12.7421606,11.2021606
36,Hurdcott,,http://environment.data.gov.uk/hydrology/id/measures/953dc0e6-a23e-49a9-a7b6-1e33675b470d-gw-logged-i-subdaily-mAOD-qualified,416690,133770,51.102988,-1.762997,55.37200928,4828,16,2007,2022,16,1.632006467,2.250772167,0.34919678
37,Hursley,http://environment.data.gov.uk/hydrology/id/measures/bcd03a7a-58ba-4eb8-a6e8-cf3ba5f18628-gw-dipped-i-mAOD-qualified,http://environment.data.gov.uk/hydrology/id/measures/bcd03a7a-58ba-4eb8-a6e8-cf3ba5f18628-gw-logged-i-subdaily-mAOD-qualified,442828,124850,51.021431,-1.390752,46.95320892,7324,36,1986,2023,38,11.02740771,16.46275059,1.13445892
38,Blowing Stone Cottage,http://environment.data.gov.uk/hydrology/id/measures/614b0d21-b4c6-4640-8814-7d200002debb-gw-dipped-i-mAOD-qualified,,432320,187560,51.585969,-1.534902,127.7728119,1475,52,1965,2023,59,14.3588119,18.3628119,6.5128119
39,Mill Road,http://environment.data.gov.uk/hydrology/id/measures/852b7941-5861-43b3-be69-c7d827d8e016-gw-dipped-i-mAOD-qualified,,565789,308887,52.652362,0.44945,25.75464821,246,24,1998,2023,26,7.633794551,8.30464821,6.72464821
40,Water Acre,http://environment.data.gov.uk/hydrology/id/measures/ead414df-153e-495c-938a-96a85655809a-gw-dipped-i-mAOD-qualified,http://environment.data.gov.uk/hydrology/id/measures/ead414df-153e-495c-938a-96a85655809a-gw-logged-i-subdaily-mAOD-qualified,425845,177785,51.498413,-1.62907,145.401825,9202,49,1975,2023,49,11.46941789,24.341825,0.244408333
41,Upavon Deep,http://environment.data.gov.uk/hydrology/id/measures/0239b742-9636-4092-8ecd-485dbb4bc7d3_90115405-gw-dipped-i-mAOD-qualified,,413670,155000,51.293964,-1.805328,91.65601349,227,22,2002,2023,22,0.919581772,2.48601349,-0.83398651
42,Upavaon Shallow,http://environment.data.gov.uk/hydrology/id/measures/0239b742-9636-4092-8ecd-485dbb4bc7d3_90115406-gw-dipped-i-mAOD-qualified,,413650,155000,51.293964,-1.805615,91.69874573,228,22,2002,2023,22,1.218219414,1.97874573,0.12874573
43,Sherburn Quarry 3,http://environment.data.gov.uk/hydrology/id/measures/5bdcd238-08e1-4458-87a0-2fbb89005cd5-gw-dipped-i-mAOD-qualified,,448976,432699,53.7883,-1.258096,32.67578125,486,43,1981,2023,43,15.49550759,15.86578125,14.74778125
44,Berwick Bassett,http://environment.data.gov.uk/hydrology/id/measures/5296be5a-dc82-40ba-8c58-71e01f485298-gw-dipped-i-mAOD-qualified,http://environment.data.gov.uk/hydrology/id/measures/5296be5a-dc82-40ba-8c58-71e01f485298-gw-logged-i-subdaily-mAOD-qualified,410831,173495,51.460324,-1.845486,169.6733551,8479,49,1974,2022,49,11.89865862,22.1433551,2.6391051
45,Amotherby,http://environment.data.gov.uk/hydrology/id/measures/b34aee74-6a3a-4543-a0b6-9a2250cdf38a-gw-dipped-i-mAOD-qualified,,475345,473167,54.148797,-0.847945,45.41613007,470,41,1982,2023,42,28.04200241,30.40613007,23.10613007
46,Brunstead Hall,,http://environment.data.gov.uk/hydrology/id/measures/001f4847-e0d9-4431-a25d-b31c7c5119db-gw-logged-i-subdaily-mAOD-qualified,637010,326810,52.786771,1.513409,7.726863384,4418,67,1952,2023,72,6.128383815,7.006863384,5.235780051
47,Moreton Lodge,,http://environment.data.gov.uk/hydrology/id/measures/e3e2735a-930f-48f1-8126-9f41a7bd7701-gw-logged-i-subdaily-mAOD-qualified,353845,323455,52.806649,-2.686111,109.8624115,7806,26,1998,2023,26,41.25735991,42.2345365,40.16511983
48,Bowbridge,http://environment.data.gov.uk/hydrology/id/measures/d929f1d2-7ae8-41fe-9a29-ced07436b1f0-gw-dipped-i-mAOD-qualified,http://environment.data.gov.uk/hydrology/id/measures/d929f1d2-7ae8-41fe-9a29-ced07436b1f0-gw-logged-i-subdaily-mAOD-qualified,512480,208960,51.768021,-0.371361,84.69039917,5734,31,1992,2023,32,2.098267071,2.94039917,1.294690837
49,Bessacar,http://environment.data.gov.uk/hydrology/id/measures/81c80f86-c4ad-4bdf-b27c-f32f37f6bf87-gw-dipped-i-mAOD-qualified,,459345,401015,53.502478,-1.106766,3.566347599,395,43,1980,2023,44,0.78662608,1.526347599,0.096347599
50,Chalton,http://environment.data.gov.uk/hydrology/id/measures/25fd56b7-6e65-482c-90b1-a69902d88d48-gw-dipped-i-mAOD-qualified,http://environment.data.gov.uk/hydrology/id/measures/25fd56b7-6e65-482c-90b1-a69902d88d48-gw-logged-i-subdaily-mAOD-qualified,473130,116050,50.939263,-0.960553,94.72647858,5710,19,2003,2023,21,51.61316678,58.92814525,31.72147858
51,Old Hall,http://environment.data.gov.uk/hydrology/id/measures/d45d95d5-847b-410e-9618-69860310a1c3-gw-dipped-i-mAOD-qualified,,617582,336920,52.885684,1.23255,40.27621078,360,36,1984,2023,40,1.217266336,2.94621078,-0.14378922
52,Main Road Croxton,http://environment.data.gov.uk/hydrology/id/measures/f300d0dd-d3be-49ef-af28-3f5af32cf946-gw-dipped-i-mAOD-qualified,,587348,286367,52.443135,0.755079,51.86093903,251,23,1998,2023,26,39.39492309,41.96093903,35.53093903
53,Rats Pen Lane Chalk,http://environment.data.gov.uk/hydrology/id/measures/a4b12b29-58c5-4b41-b67d-9bdb60dcf0e5-gw-dipped-i-mAOD-qualified,,539445,382465,53.320738,0.092009,16.02823448,380,36,1981,2023,43,8.294866059,9.76823448,7.25823448
54,Myddlewood,http://environment.data.gov.uk/hydrology/id/measures/2d265b93-730b-4da9-9351-2e61781fdd18-gw-dipped-i-mAOD-qualified,,346045,323415,52.805564,-2.8018,99.89665985,522,46,1975,2022,48,38.11620966,39.59665985,36.59665985
55,Slough Farm,http://environment.data.gov.uk/hydrology/id/measures/d432e07c-df09-4c29-987a-cefe16db7154-gw-dipped-i-mAOD-qualified,,604921,227489,51.908222,0.977731,35.01277542,213,34,1972,2023,52,32.5662496,37.33277542,30.63277542
56,Marlston Farm,http://environment.data.gov.uk/hydrology/id/measures/98e79ed7-ff97-4fdc-b51e-fede9c58d3bd-gw-dipped-i-mAOD-qualified,http://environment.data.gov.uk/hydrology/id/measures/98e79ed7-ff97-4fdc-b51e-fede9c58d3bd-gw-logged-i-subdaily-mAOD-qualified,453385,171915,51.443713,-1.233251,75.01563263,9169,50,1973,2023,51,5.424210986,8.15563263,2.712174297
57,Royalty Farm,http://environment.data.gov.uk/hydrology/id/measures/f6487e6c-c35b-4fb0-851f-37e13d945bde-gw-dipped-i-mAOD-qualified,http://environment.data.gov.uk/hydrology/id/measures/f6487e6c-c35b-4fb0-851f-37e13d945bde-gw-logged-i-subdaily-mAOD-qualified,393640,647458,55.720481,-2.102801,56.28503799,4432,34,1990,2023,34,11.98939962,13.69503799,10.23349632
58,Wested Farm,http://environment.data.gov.uk/hydrology/id/measures/9e1cff99-fda7-4e21-b8b7-74a386a20bd2-gw-dipped-i-mAOD-qualified,,551843,166864,51.380518,0.180509,99.65593719,1798,62,1962,2023,62,57.09161572,58.85593719,54.84593719
59,Trowley Bottom Farm,http://environment.data.gov.uk/hydrology/id/measures/7af4d245-cf17-455e-bfdc-6c5fcd42df1b-gw-dipped-i-mAOD-qualified,,507710,213850,51.812908,-0.438941,116.9633026,494,49,1974,2023,50,10.87224997,18.9533026,5.0333026
60,Glynch 3,,http://environment.data.gov.uk/hydrology/id/measures/327c5a5d-b990-4dc3-9c45-e45844f7e63b_26348-gw-logged-i-subdaily-mAOD-qualified,374319,233620,52.000414,-2.375479,52.7105217,2591,10,2013,2022,10,19.55294024,21.56718837,16.8580217
61,Pipe Green,http://environment.data.gov.uk/hydrology/id/measures/73ce392f-0891-4233-b9c0-98ecfaf1e557-gw-dipped-i-mAOD-qualified,,410622,309643,52.684369,-1.844301,82.61011505,348,32,1991,2022,32,1.561063326,3.13011505,0.74011505
62,Itteringham 2,http://environment.data.gov.uk/hydrology/id/measures/76e6589c-c776-40f0-bac1-6e962d336256-gw-dipped-i-mAOD-qualified,,613063,332152,52.844696,1.16238,46.5690155,318,32,1984,2023,40,15.58168846,16.6390155,14.7090155
63,Winchester Guildhall,http://environment.data.gov.uk/hydrology/id/measures/90fd2961-bed5-4105-90fd-96349115fcb6-gw-dipped-i-mAOD-qualified,,448505,129295,51.060948,-1.309225,36.06915283,274,24,2000,2023,24,2.666780567,3.41915283,1.28915283
64,Hambleton,http://environment.data.gov.uk/hydrology/id/measures/8ac175df-5d44-40c4-af14-5a7c46fdeaca-gw-dipped-i-mAOD-qualified,http://environment.data.gov.uk/hydrology/id/measures/8ac175df-5d44-40c4-af14-5a7c46fdeaca-gw-logged-i-subdaily-mAOD-qualified,456331,431418,53.776045,-1.146705,7.065656185,11600,36,1988,2023,36,2.376575478,3.805656185,1.044031185
65,Cocker Bridge,http://environment.data.gov.uk/hydrology/id/measures/82562637-e59a-4e38-91e7-020a222caef2-gw-dipped-i-mAOD-qualified,,345255,451355,53.955361,-2.835742,5.025273323,414,44,1965,2022,58,0.562060763,1.675273323,-0.544726677
66,Lynstead,http://environment.data.gov.uk/hydrology/id/measures/49b43b86-1f00-4df0-b7e0-d16e1e0aab6a-gw-dipped-i-mAOD-qualified,,594652,160394,51.309359,0.791414,37.01755905,244,24,1999,2022,24,18.40896479,21.01755905,14.22755905
67,Cundall Sandstone,http://environment.data.gov.uk/hydrology/id/measures/4a854eb5-c5c0-414c-8715-cebd4085ca89-gw-dipped-i-mAOD-qualified,http://environment.data.gov.uk/hydrology/id/measures/4a854eb5-c5c0-414c-8715-cebd4085ca89-gw-logged-i-subdaily-mAOD-qualified,442090,472497,54.14657,-1.357128,18.49160576,11480,38,1986,2023,38,2.130965575,2.939939093,1.252772427
69,Whitworth Hall,http://environment.data.gov.uk/hydrology/id/measures/72a62131-cf35-4f65-b5f7-a9fb3d043612-gw-dipped-i-mAOD-qualified,http://environment.data.gov.uk/hydrology/id/measures/72a62131-cf35-4f65-b5f7-a9fb3d043612-gw-logged-i-subdaily-mAOD-qualified,423711,535011,54.709543,-1.633509,89.8429184,6789,23,2000,2023,24,37.62520878,53.37750173,33.8829184
70,Painsbrook,,http://environment.data.gov.uk/hydrology/id/measures/7b8dee44-4fc6-4218-96b5-f9b966335190-gw-logged-i-subdaily-mAOD-qualified,353185,320925,52.783851,-2.695538,72.84960938,3095,10,2008,2022,15,5.617563885,7.98460938,4.50460938
71,Bow Wow,http://environment.data.gov.uk/hydrology/id/measures/ba4127b8-b925-42df-b859-0932394be0bc-gw-dipped-i-mAOD-qualified,http://environment.data.gov.uk/hydrology/id/measures/ba4127b8-b925-42df-b859-0932394be0bc-gw-logged-i-subdaily-mAOD-qualified,405535,197635,51.67745,-1.921342,89.21156311,1134,19,2003,2023,21,0.964645369,1.90156311,0.489854777
74,Aughton Cliffs Farm,http://environment.data.gov.uk/hydrology/id/measures/2c456f7e-37b7-45cd-bf6c-a103bd12ccb2-gw-dipped-i-mAOD-qualified,,338185,409275,53.5764,-2.935024,19.20391846,119,33,1983,2022,40,10.19190165,24.05391846,0.96391846
75,Pipstile Farm Uphampton,http://environment.data.gov.uk/hydrology/id/measures/9adbd1d5-96aa-4eb6-b578-b9e4de87aee7-gw-dipped-i-mAOD-qualified,,383541,264701,52.280196,-2.242666,66.90311432,697,49,1973,2022,50,5.15060356,7.68311432,2.11311432
76,Challenge Farm,http://environment.data.gov.uk/hydrology/id/measures/196f85be-141a-411b-a59b-f6723ca0e889-gw-dipped-i-mAOD-qualified,http://environment.data.gov.uk/hydrology/id/measures/196f85be-141a-411b-a59b-f6723ca0e889-gw-logged-i-subdaily-mAOD-qualified,580808,160497,51.314848,0.593064,162.7789154,3483,36,1984,2022,39,93.52625037,95.19724873,91.1589154
77,Frome,http://environment.data.gov.uk/hydrology/id/measures/6857fd53-b4fa-4871-8a02-19a32297d594-gw-dipped-i-mAOD-qualified,,377287,149764,51.246587,-2.326782,60.13240814,829,49,1974,2023,50,4.285805808,6.13240814,2.00240814
78,Shortheath Pond,http://environment.data.gov.uk/hydrology/id/measures/ace4c039-beca-4a57-823b-8520c579c504-gw-dipped-i-mAOD-qualified,http://environment.data.gov.uk/hydrology/id/measures/ace4c039-beca-4a57-823b-8520c579c504-gw-logged-i-subdaily-mAOD-qualified,477560,136820,51.125417,-0.893077,74.02702332,6446,22,2001,2023,23,0.643301746,1.21902332,-0.378935013
79,Hornsea,http://environment.data.gov.uk/hydrology/id/measures/220de642-8e8f-49a8-8c7f-91730d87444d-gw-dipped-i-mAOD-qualified,,518302,448799,53.921812,-0.200043,19.15652275,490,45,1978,2023,46,2.621114587,5.72652275,0.18652275
80,Crudwell,http://environment.data.gov.uk/hydrology/id/measures/a8c57c07-a2de-4dc9-88c5-953b3c176cb7-gw-dipped-i-mAOD-qualified,,395655,192785,51.633851,-2.064169,95.53489685,537,42,1982,2023,42,8.713407092,24.16489685,1.70489685
81,Wrelton Paddock,http://environment.data.gov.uk/hydrology/id/measures/f4f9e29a-67e5-43a6-a9dc-e9fc88ef73a4-gw-dipped-i-mAOD-qualified,,476580,485934,54.263332,-0.825793,41.52085114,454,41,1982,2023,42,11.48296568,13.85085114,6.85085114
82,Black Hall Farm,http://environment.data.gov.uk/hydrology/id/measures/f56bcdea-cec6-445f-858e-7eb3e28c13e1-gw-dipped-i-mAOD-qualified,,427625,287725,52.48674,-1.594605,118.1890106,208,20,2003,2022,20,12.45331348,14.4790106,10.2190106
83,Cockley Cley Copse,http://environment.data.gov.uk/hydrology/id/measures/53aad76b-6d76-43b2-bfe5-23751dbc87d0-gw-dipped-i-mAOD-qualified,,579672,303892,52.60309,0.65174,34.00589752,103,23,1995,2023,29,13.11914995,14.88589752,11.93089752
84,Westpoint,,http://environment.data.gov.uk/hydrology/id/measures/37624cbe-e179-4f97-8901-2c1d1454c1db-gw-logged-i-subdaily-mAOD-qualified,298697,91240,50.711934,-3.436166,24.96103096,5505,16,2006,2021,16,4.664494003,5.67121846,3.939708043
85,West Cowick,http://environment.data.gov.uk/hydrology/id/measures/8d99a6b7-3f8a-4400-8890-c46c13c73521-gw-dipped-i-mAOD-qualified,,464601,421302,53.684177,-1.023343,5.946015835,359,31,1993,2023,31,0.98058408,3.446015835,-0.174984165
86,Iwerne Hill Farm,,http://environment.data.gov.uk/hydrology/id/measures/b35221a6-1049-4e08-9919-3a10ad732bc6-gw-logged-i-subdaily-mAOD-qualified,388580,114420,50.929113,-2.163861,186.0513611,5297,15,2008,2022,15,81.73731896,86.61802777,71.37063193
87,Old Well House,,http://environment.data.gov.uk/hydrology/id/measures/1a4e369e-8a73-4f97-a001-531ea596d3ad-gw-logged-i-subdaily-mAOD-qualified,545070,153800,51.264897,0.077943,119.5168381,6587,23,1993,2020,28,20.77040772,25.2358381,16.1970881
88,Croxton Heath,http://environment.data.gov.uk/hydrology/id/measures/2a5dd70d-52b1-4c00-bf20-1028b59326d1-gw-dipped-i-mAOD-qualified,,589145,288195,52.458931,0.78252,37.97511673,204,23,1998,2023,26,10.57982261,15.23511673,5.44511673
89,Sproxton,http://environment.data.gov.uk/hydrology/id/measures/5852df4d-b7da-4af7-a422-1ad4b28d5332-gw-dipped-i-mAOD-qualified,http://environment.data.gov.uk/hydrology/id/measures/5852df4d-b7da-4af7-a422-1ad4b28d5332-gw-logged-i-subdaily-mAOD-qualified,462352,481645,54.22672,-1.045082,71.12849426,13256,51,1972,2023,52,26.15446405,29.36849426,21.41182759
90,Mayhouse Farm,http://environment.data.gov.uk/hydrology/id/measures/a41e0cb3-e54e-43ac-b052-610f601a0964-gw-dipped-i-mAOD-qualified,,386475,262865,52.26377,-2.199586,37.08323669,430,39,1983,2022,40,2.10879483,4.03323669,-0.66676331
91,Beenham,http://environment.data.gov.uk/hydrology/id/measures/814c9091-9ccc-4512-93ab-5fd08df8d2a0-gw-dipped-i-mAOD-qualified,http://environment.data.gov.uk/hydrology/id/measures/814c9091-9ccc-4512-93ab-5fd08df8d2a0-gw-logged-i-subdaily-mAOD-qualified,459335,169345,51.420017,-1.148079,99.51280212,8756,45,1979,2023,45,47.8582351,50.07280212,45.74280212
92,Brislands Lane,http://environment.data.gov.uk/hydrology/id/measures/ae17284d-6603-4a4d-b4d6-3c0379c258e2-gw-dipped-i-mAOD-qualified,,465473,133500,51.097074,-1.066369,161.3292999,210,35,1982,2022,41,77.125538,84.7092999,67.8592999
93,Blackmore Farm,http://environment.data.gov.uk/hydrology/id/measures/47950d9b-0e6e-49bd-b91b-314465833a80-gw-dipped-i-mAOD-qualified,,426835,151855,51.26522,-1.61676,134.1482849,104,47,1966,2023,58,35.72982336,50.4182849,14.7382849
94,Fox Hall,http://environment.data.gov.uk/hydrology/id/measures/58ffea31-f875-40ef-8727-ff5692a7e6cf-gw-dipped-i-mAOD-qualified,,332235,325805,52.825485,-3.007123,77.65715027,456,44,1978,2022,45,0.517676586,1.24715027,-0.25284973
95,Jevington,http://environment.data.gov.uk/hydrology/id/measures/954b9841-6469-41cf-8597-487334362e72-gw-dipped-i-mAOD-qualified,http://environment.data.gov.uk/hydrology/id/measures/954b9841-6469-41cf-8597-487334362e72-gw-logged-i-subdaily-mAOD-qualified,556341,101386,50.790961,0.216779,73.28177643,6228,41,1976,2023,48,41.66263636,46.28030768,18.29052643
96,Pickworth,http://environment.data.gov.uk/hydrology/id/measures/b8cad42f-338d-48da-9ec7-ab923e5c7fca-gw-dipped-i-mAOD-qualified,,504095,334375,52.896741,-0.45402,55.0868187,635,43,1972,2023,52,29.94418878,34.3168187,20.8368187
98,Shawell Cottage,,http://environment.data.gov.uk/hydrology/id/measures/0a4f0d2c-7272-4a35-b486-baa48914ab2a_2848-gw-logged-i-subdaily-mAOD-qualified,349345,320265,52.777571,-2.752364,106.4843445,3747,17,1997,2023,27,41.66977502,45.1268445,40.63767783
99,Shawbury Park Wood,,http://environment.data.gov.uk/hydrology/id/measures/0a4f0d2c-7272-4a35-b486-baa48914ab2a_5006-gw-logged-i-subdaily-mAOD-qualified,355825,319105,52.767714,-2.656152,67.76834869,8092,26,1998,2023,26,8.215863093,8.742640357,7.552140357
102,Ermin Farm,http://environment.data.gov.uk/hydrology/id/measures/767dc62b-76c6-446e-95ee-c5adcb24669a-gw-dipped-i-mAOD-qualified,,405544,199659,51.695648,-1.92118,112.9208221,428,37,1987,2023,37,23.90416322,31.1108221,17.1908221
103,Jubilee Bridge,http://environment.data.gov.uk/hydrology/id/measures/6a354378-c07c-4b88-97cc-64e3365ca0b3-gw-dipped-i-mAOD-qualified,http://environment.data.gov.uk/hydrology/id/measures/6a354378-c07c-4b88-97cc-64e3365ca0b3-gw-logged-i-subdaily-mAOD-qualified,421000,534329,54.703534,-1.675633,56.94245529,10021,31,1993,2023,31,11.38579868,35.92037196,-0.62754471
106,Southover,http://environment.data.gov.uk/hydrology/id/measures/3d4a1bed-b01b-4329-ad16-55321640ed6e-gw-dipped-i-mAOD-qualified,,565221,271233,52.314334,0.422404,16.11675835,239,23,1998,2023,26,12.00014747,13.74675835,9.76675835
107,Ogbourne,http://environment.data.gov.uk/hydrology/id/measures/c46dd2a3-5189-4c1f-b7ad-6f471ff3e6eb-gw-dipped-i-mAOD-qualified,http://environment.data.gov.uk/hydrology/id/measures/c46dd2a3-5189-4c1f-b7ad-6f471ff3e6eb-gw-logged-i-subdaily-mAOD-qualified,419454,172560,51.451688,-1.721421,141.0203552,7573,49,1974,2022,49,8.45309994,14.1103552,3.2103552
108,Little Thurlow,http://environment.data.gov.uk/hydrology/id/measures/1f47d9e0-1c60-4677-aad9-72bbe75ccdd7-gw-dipped-i-mAOD-qualified,,568000,251202,52.133572,0.453192,68.82952881,292,30,1992,2023,32,2.032415796,7.52952881,-0.87047119
109,Crookhall Bridge,http://environment.data.gov.uk/hydrology/id/measures/51bf117d-6b84-443f-bb3d-d18e35a4fc14-gw-dipped-i-mAOD-qualified,,347235,450625,53.949007,-2.805446,6.24879694,481,50,1961,2022,62,0.613173239,2.28879694,-0.31120306
110,Cowfold,http://environment.data.gov.uk/hydrology/id/measures/55c24adc-8f28-49ad-aa28-814e8310eac9-gw-dipped-i-mAOD-qualified,http://environment.data.gov.uk/hydrology/id/measures/55c24adc-8f28-49ad-aa28-814e8310eac9-gw-logged-i-subdaily-mAOD-qualified,472765,157005,51.307516,-0.957493,65.90307617,486,23,1982,2023,42,7.533024887,10.33307617,6.67607617
111,Elm Place,http://environment.data.gov.uk/hydrology/id/measures/7f907c25-a129-4b3f-b719-fc68764a3dca-gw-dipped-i-mAOD-qualified,,576126,301843,52.585849,0.598347,17.40144539,238,25,1998,2022,25,9.018084045,9.88344539,7.84144539
113,Rabbits Farm,http://environment.data.gov.uk/hydrology/id/measures/be219a43-918c-4c73-a57a-1388340ec5f4-gw-dipped-i-mAOD-qualified,,557750,168650,51.394955,0.266112,78.079216,311,30,1992,2023,32,56.46201343,59.829216,53.209216
114,Side Saddle Farm,http://environment.data.gov.uk/hydrology/id/measures/bfa1e86a-1789-4adc-b4a1-c89838dfc399-gw-dipped-i-mAOD-qualified,,359385,324605,52.817433,-2.604078,73.83473206,280,33,1984,2020,37,2.153214203,3.64473206,0.54473206
115,Fordington Down,,http://environment.data.gov.uk/hydrology/id/measures/46cb6796-334e-4737-9dae-711cdf640fb7-gw-logged-i-subdaily-mAOD-qualified,365369,90502,50.713108,-2.491858,131.9833527,2611,9,2015,2023,9,57.44428583,63.58064437,47.19073245
116,Figheldean Deep,http://environment.data.gov.uk/hydrology/id/measures/2b682b4f-0398-460e-8903-49d6d90c6eee_90114303-gw-dipped-i-mAOD-qualified,,415687,146780,51.22,-1.776759,78.47982788,233,22,2002,2023,22,1.075021013,1.64982788,0.17982788
117,Figheldean Shallow,http://environment.data.gov.uk/hydrology/id/measures/2b682b4f-0398-460e-8903-49d6d90c6eee_90114304-gw-dipped-i-mAOD-qualified,,415674,146792,51.220108,-1.776945,79.05967712,238,22,2002,2023,22,1.4836267,2.06967712,0.58967712
118,High Road Ashton Keynes,http://environment.data.gov.uk/hydrology/id/measures/78683a5b-89e4-44e5-a64b-cbd083e597dc-gw-dipped-i-mAOD-qualified,http://environment.data.gov.uk/hydrology/id/measures/78683a5b-89e4-44e5-a64b-cbd083e597dc-gw-logged-i-subdaily-mAOD-qualified,404780,193710,51.642166,-1.932313,83.46429443,6858,20,2004,2023,20,0.857691782,1.320961097,0.301086097
119,Hurst Green,http://environment.data.gov.uk/hydrology/id/measures/88286eee-3ce0-499f-bf67-212e35bbae4b-gw-dipped-i-mAOD-qualified,,349185,415085,53.6298,-2.769865,17.23407745,194,37,1969,2022,54,2.552634151,4.19407745,0.68407745
122,Ord Road,http://environment.data.gov.uk/hydrology/id/measures/e50d2979-eb5a-49bf-b5ca-1e4b3f313ed5-gw-dipped-i-mAOD-qualified,http://environment.data.gov.uk/hydrology/id/measures/e50d2979-eb5a-49bf-b5ca-1e4b3f313ed5-gw-logged-i-subdaily-mAOD-qualified,398710,652075,55.762006,-2.022117,18.18367958,7570,24,1990,2013,24,19.721217,32.84730458,11.53701291
123,Crosshill,,http://environment.data.gov.uk/hydrology/id/measures/71a43cfe-c5cc-4091-af22-2edc55d071bb-gw-logged-i-subdaily-mAOD-qualified,349395,315345,52.733351,-2.750862,79.69293213,9929,32,1991,2022,32,27.25451559,27.8530988,26.63614046
124,Newbarn Cottage,http://environment.data.gov.uk/hydrology/id/measures/59d94c00-c984-4a7b-98d4-d7234a58cc7f-gw-dipped-i-mAOD-qualified,,473235,118135,50.957995,-0.95864,101.7678452,740,41,1965,2023,59,23.67669655,35.1478452,3.6378452
125,Walford,http://environment.data.gov.uk/hydrology/id/measures/d03630ed-a551-4ccd-8f9a-be4258495c14-gw-dipped-i-mAOD-qualified,,343235,320575,52.779748,-2.842985,74.95154572,343,33,1986,2022,37,17.70502969,20.05154572,16.51154572
126,Marldell,http://environment.data.gov.uk/hydrology/id/measures/0738d2b4-3427-4a0a-a00c-9b9d7ba46313-gw-dipped-i-mAOD-qualified,,463370,124996,51.020851,-1.097884,118.7969742,179,31,1986,2022,37,38.90853845,41.9969742,33.9069742
128,Crondall,http://environment.data.gov.uk/hydrology/id/measures/4f106d94-1474-4ba2-a589-2e68da6ea20f-gw-dipped-i-mAOD-qualified,http://environment.data.gov.uk/hydrology/id/measures/4f106d94-1474-4ba2-a589-2e68da6ea20f-gw-logged-i-subdaily-mAOD-qualified,479475,148665,51.231643,-0.863102,91.49639893,1616,75,1949,2023,75,6.850146192,10.53639893,3.36639893
129,Vicarage Farm,http://environment.data.gov.uk/hydrology/id/measures/70073f33-1550-404a-85ca-e1bc6b476e21-gw-dipped-i-mAOD-qualified,,558418,262932,52.241771,0.318797,31.22914124,229,22,1998,2019,22,17.832067,24.38914124,12.00914124
130,Hoad Farm,http://environment.data.gov.uk/hydrology/id/measures/2564c462-a022-4919-96ac-c2b3eb9fc706-gw-dipped-i-mAOD-qualified,,617867,156290,51.264106,1.12149,46.54291534,324,40,1967,2022,56,29.67001411,35.83291534,23.14291534
131,Higham Mill,http://environment.data.gov.uk/hydrology/id/measures/b78d818a-7953-4e67-ba1e-a6da2a27c2b7-gw-dipped-i-mAOD-qualified,,572288,171659,51.41776,0.47634,56.71195221,525,57,1967,2023,57,52.62372364,53.94195221,51.76195221
132,Toad Hall,http://environment.data.gov.uk/hydrology/id/measures/2e47e370-8d67-4bf0-bc78-d35aa1a6214b-gw-dipped-i-mAOD-qualified,,556510,131382,51.060446,0.23204,130.0462952,230,39,1977,2022,46,10.01653433,11.2962952,7.5162952
133,Whitbread,http://environment.data.gov.uk/hydrology/id/measures/cb99c895-3432-4674-b3d0-1a4e6c23aa10-gw-dipped-i-mAOD-qualified,,358495,428785,53.753753,-2.630933,48.58363342,124,33,1980,2022,43,37.92960116,40.23363342,35.41363342
134,Leedsgate Farm,http://environment.data.gov.uk/hydrology/id/measures/064f5941-fc17-4cd0-8618-2b8bcf722954-gw-dipped-i-mAOD-qualified,,523725,358735,53.111449,-0.153044,10.24935913,364,35,1982,2023,42,1.496501987,2.44935913,0.75935913
135,Perimeter Road,,http://environment.data.gov.uk/hydrology/id/measures/62090afb-44e6-4848-93b7-44bf3c02e7e2-gw-logged-i-subdaily-mAOD-qualified,343945,398145,53.477019,-2.846049,48.57095718,400,47,1966,2021,56,24.44043687,30.23095718,9.59095718
136,Alsa Wood Cottage,http://environment.data.gov.uk/hydrology/id/measures/d7f39c74-20b8-4ecc-a730-659b45565cac-gw-dipped-i-mAOD-qualified,,552259,226414,51.915438,0.212382,99.39503479,458,43,1981,2023,43,34.04005662,37.03503479,30.52503479
137,Lullingstone,http://environment.data.gov.uk/hydrology/id/measures/3335e750-8b05-4eff-a0bc-e06f9f9226dc_441325004-gw-dipped-i-mAOD-qualified,http://environment.data.gov.uk/hydrology/id/measures/3335e750-8b05-4eff-a0bc-e06f9f9226dc_441325004-gw-logged-i-subdaily-mAOD-qualified,553496,164800,51.361528,0.203352,52.74417877,3744,25,1997,2021,25,12.01320258,14.20417877,9.899970437
139,Kenninghall Place,,http://environment.data.gov.uk/hydrology/id/measures/11e7f57d-5806-4011-9ddb-31d2fdae617e-gw-logged-i-subdaily-mAOD-qualified,607453,285624,52.42921,1.049995,51.03430939,218,21,1998,2018,21,7.357199298,9.63430939,6.00430939
140,St Philomenas School,http://environment.data.gov.uk/hydrology/id/measures/eb17f237-a0e0-4dfb-bb81-2c183ce967c1-gw-dipped-i-mAOD-qualified,,527582,164390,51.36425,-0.168785,38.49332047,366,30,1989,2022,34,3.915301344,11.14332047,-0.63667953
141,Church Farm Cottage,http://environment.data.gov.uk/hydrology/id/measures/07da52f8-7dae-415c-87ed-77a0ed3a5b28-gw-dipped-i-mAOD-qualified,,585105,309829,52.654579,0.735193,59.73609161,129,15,2005,2023,19,10.96919239,14.30609161,4.44609161
142,High School,http://environment.data.gov.uk/hydrology/id/measures/8730b0fa-4d19-4b85-a5cf-48477310e550-gw-dipped-i-mAOD-qualified,,384465,397785,53.476548,-2.235523,40.15824127,182,36,1970,2020,51,12.91104347,14.74824127,11.88824127
143,Lullingstone Centre,http://environment.data.gov.uk/hydrology/id/measures/7f7c7c32-e2e9-46ab-9465-d03d1330db87-gw-dipped-i-mAOD-qualified,,552677,163876,51.353447,0.191201,46.84046936,510,32,1992,2023,32,1.402547791,2.85046936,-0.10953064
144,Washdyke Bridge,http://environment.data.gov.uk/hydrology/id/measures/2046056b-bafa-481c-9646-13a74b573059-gw-dipped-i-mAOD-qualified,,547545,379465,53.291599,0.212122,2.51836729,935,47,1973,2023,51,1.513319162,2.82836729,0.48836729
145,Wilmington Grammar,http://environment.data.gov.uk/hydrology/id/measures/da309054-7693-454f-a194-239221c69f97-gw-dipped-i-mAOD-qualified,http://environment.data.gov.uk/hydrology/id/measures/da309054-7693-454f-a194-239221c69f97-gw-logged-i-subdaily-mAOD-qualified,552461,172312,51.429302,0.191722,25.87277412,5180,28,1995,2022,28,14.09197657,16.22277412,11.88456579
146,Dowlands Tangley,http://environment.data.gov.uk/hydrology/id/measures/e8e26bb3-d369-49d2-8278-cec3a97f8a80-gw-dipped-i-mAOD-qualified,,433405,153605,51.280609,-1.522434,200.5324402,421,37,1986,2023,38,78.00996989,79.2624402,75.1824402
147,Eve Stud,http://environment.data.gov.uk/hydrology/id/measures/e471ecc9-e5fa-4cb4-8f8d-ed27f9fdbd45-gw-dipped-i-mAOD-qualified,,566175,258171,52.196721,0.429963,114.4790649,221,24,1998,2023,26,49.54227757,52.9290649,46.4290649
150,The Soapworks,,http://environment.data.gov.uk/hydrology/id/measures/20575939-1f24-4294-ae22-a4892f589274-gw-logged-i-subdaily-mAOD-qualified,381619,396701,53.466712,-2.278339,23.65332031,4579,18,2002,2021,20,2.799723389,3.339986977,2.280403643
151,Clap Gate Cottage,http://environment.data.gov.uk/hydrology/id/measures/d6c2f7f0-bb0e-4111-a07a-940c2d586bb2-gw-dipped-i-mAOD-qualified,,446155,152255,51.267583,-1.339817,104.7096481,671,64,1959,2023,65,16.04352291,22.4696481,5.1796481
152,Quickset Road,http://environment.data.gov.uk/hydrology/id/measures/43cf6c22-50e8-4249-a3eb-6e9279da10a8-gw-dipped-i-mAOD-qualified,,546945,240221,52.040912,0.141085,87.8184967,244,24,1998,2023,26,31.53841473,38.4084967,21.9684967
153,Perrotts Brook,http://environment.data.gov.uk/hydrology/id/measures/494476b6-d74c-4325-b7c6-c8956024be63-gw-dipped-i-mAOD-qualified,http://environment.data.gov.uk/hydrology/id/measures/494476b6-d74c-4325-b7c6-c8956024be63-gw-logged-i-subdaily-mAOD-qualified,401936,206076,51.753367,-1.973348,123.4022064,8956,40,1982,2022,41,2.563235527,8.2879564,-2.8957936
154,Greatwood Farm,,http://environment.data.gov.uk/hydrology/id/measures/c0b13c5f-e0d8-4984-9bfc-e8495ef39da2-gw-logged-i-subdaily-mAOD-qualified,377925,331205,52.877844,-2.329438,166.7106934,3354,11,2013,2023,11,60.82329952,61.8756934,59.76027673
155,Newmans Yard,,http://environment.data.gov.uk/hydrology/id/measures/952e26ac-e16d-4ad4-b748-cd128479e1a8-gw-logged-i-subdaily-mAOD-qualified,592023,329670,52.830317,0.848937,42.18383026,458,25,1993,2020,28,7.928414463,8.17383026,7.54383026
156,Little London Bramdean,http://environment.data.gov.uk/hydrology/id/measures/1045ceba-57c3-4e8a-b99e-7396e3a5cb98-gw-dipped-i-mAOD-qualified,,460449,128193,51.049909,-1.138992,78.57444763,469,49,1963,2023,61,4.291654453,7.25444763,1.22444763
157,School Lane,http://environment.data.gov.uk/hydrology/id/measures/74978a8a-71e3-4c75-8ac3-550fdbe11922-gw-dipped-i-mAOD-qualified,,557690,167110,51.381135,0.264566,104.5039063,482,43,1980,2022,43,73.94847062,75.7939063,71.8839063
158,Trafalgar square,http://environment.data.gov.uk/hydrology/id/measures/7982fec4-ffd8-424f-b198-af6b58e9796c-gw-dipped-i-mAOD-qualified,http://environment.data.gov.uk/hydrology/id/measures/7982fec4-ffd8-424f-b198-af6b58e9796c-gw-logged-i-subdaily-mAOD-qualified,529974,180507,51.508548,-0.128535,12.5896759,4635,66,1950,2023,74,61.62527866,100.1796759,46.16709257
159,Seascale Hall,http://environment.data.gov.uk/hydrology/id/measures/0291a14f-c3c7-4665-addf-4e84e94aa0bc-gw-dipped-i-mAOD-qualified,,303975,502765,54.411225,-3.481051,25.35424614,125,29,1973,2010,38,10.10896614,11.40424614,8.96424614
160,Carley Hill,http://environment.data.gov.uk/hydrology/id/measures/83e28db3-9d76-417a-a9be-34d1a458d8bf-gw-dipped-i-mAOD-qualified,http://environment.data.gov.uk/hydrology/id/measures/83e28db3-9d76-417a-a9be-34d1a458d8bf-gw-logged-i-subdaily-mAOD-qualified,438764,559423,54.927976,-1.396634,55.33877563,6395,23,2001,2023,23,52.12931548,53.4354423,49.7155673
161,Ixworth Thorpe,http://environment.data.gov.uk/hydrology/id/measures/c0ef2e8d-c302-47bd-999b-989de836657a-gw-dipped-i-mAOD-qualified,,591773,272541,52.317455,0.812198,45.29453278,227,22,1998,2019,22,21.11572221,22.11453278,20.06453278
162,Swan Carr,http://environment.data.gov.uk/hydrology/id/measures/a2a040b9-b64d-4361-860a-371fb2450d8f-gw-dipped-i-mAOD-qualified,,431413,527055,54.637628,-1.514829,78.58377838,1239,54,1968,2023,56,6.185658929,14.75377838,3.80377838
163,Chipley,http://environment.data.gov.uk/hydrology/id/measures/63481815-a9d3-432e-a0e3-e5b297008edb-gw-dipped-i-mAOD-qualified,,311702,125300,51.020265,-3.260252,90.04476166,284,29,1992,2023,32,10.98342011,17.85476166,5.46476166
164,Vauxhall Road,,http://environment.data.gov.uk/hydrology/id/measures/dd2b5853-7618-485f-9272-7206db1d9048-gw-logged-i-subdaily-mAOD-qualified,334360,392220,53.422661,-2.989207,18.92000008,6449,20,2001,2020,20,23.6891609,25.02833341,22.25166675
165,North Dean House,http://environment.data.gov.uk/hydrology/id/measures/96a6e2a5-2842-4704-8d2c-8daa179e2b10-gw-dipped-i-mAOD-qualified,http://environment.data.gov.uk/hydrology/id/measures/96a6e2a5-2842-4704-8d2c-8daa179e2b10-gw-logged-i-subdaily-mAOD-qualified,485540,198150,51.67561,-0.764307,111.8564377,4582,50,1974,2023,50,10.44922656,18.7764377,1.1764377
166,Wilgate Green,http://environment.data.gov.uk/hydrology/id/measures/01e2532a-1f3d-45db-a9a3-f6667b446ab0-gw-dipped-i-mAOD-qualified,http://environment.data.gov.uk/hydrology/id/measures/01e2532a-1f3d-45db-a9a3-f6667b446ab0-gw-logged-i-subdaily-mAOD-qualified,599994,156917,51.276283,0.866011,72.04188538,7446,25,1999,2023,25,46.26287823,51.69044788,38.52188538
167,Hut and Lodge Farm,http://environment.data.gov.uk/hydrology/id/measures/9c05cd86-875d-44b7-96fe-d30954c52977_90102105-gw-dipped-i-mAOD-qualified,,404342,122490,51.001781,-1.939488,170.328125,352,33,1991,2023,33,67.67866477,76.818125,54.498125
168,Pettaugh,http://environment.data.gov.uk/hydrology/id/measures/16995b14-addc-4516-b499-677e2a0cd6f0-gw-dipped-i-mAOD-qualified,,617660,260672,52.201271,1.183755,37.95082092,107,22,1995,2023,29,3.476802228,4.97082092,-0.37917908
169,Abbotscroft Farm,http://environment.data.gov.uk/hydrology/id/measures/71051d15-47c2-400f-959a-7cba8c43f259-gw-dipped-i-mAOD-qualified,,464946,131202,51.076473,-1.074306,119.0511322,211,33,1982,2022,41,36.95966301,44.0011322,27.6311322
170,Campdenhill Farm,http://environment.data.gov.uk/hydrology/id/measures/5f9e9076-b537-428c-8f88-6750a9fa8903-gw-dipped-i-mAOD-qualified,,414935,236635,52.027922,-1.783724,223.177536,338,29,1994,2022,29,3.41866026,4.347536,2.167536
171,Allford Brook,http://environment.data.gov.uk/hydrology/id/measures/d3b2178f-aa60-4cbe-95da-9811c423172d-gw-dipped-i-mAOD-qualified,,365525,322385,52.797907,-2.512742,58.01355362,327,37,1972,2022,51,1.84766677,2.58355362,1.18355362
172,Highwood Farm,http://environment.data.gov.uk/hydrology/id/measures/b1946b16-9390-4bb1-a7e1-69197f59858d-gw-dipped-i-mAOD-qualified,,448095,169055,51.418472,-1.309748,89.41261292,1661,54,1963,2019,57,13.92088505,15.86261292,10.60261292
173,Capel Church Farm,,http://environment.data.gov.uk/hydrology/id/measures/a7f305dd-bb99-4a56-95d2-8f9b6e168cb1-gw-logged-i-subdaily-mAOD-qualified,625386,140103,51.115864,1.218936,138.7361755,5759,17,2005,2021,17,68.23326177,83.58846717,54.8494255
174,Hutton Villa,http://environment.data.gov.uk/hydrology/id/measures/055446c6-678b-41d1-83fa-2a454dbe1f3d-gw-dipped-i-mAOD-qualified,http://environment.data.gov.uk/hydrology/id/measures/055446c6-678b-41d1-83fa-2a454dbe1f3d-gw-logged-i-subdaily-mAOD-qualified,432951,528556,54.651019,-1.490833,81.87039948,10292,32,1992,2023,32,8.65161489,10.60473281,7.52039948
175,Holly Lodge,http://environment.data.gov.uk/hydrology/id/measures/c4d7f6ca-9a16-47de-bcd1-be75cc129aa5-gw-dipped-i-mAOD-qualified,,455474,355836,53.096842,-1.172998,145.8835602,587,50,1974,2023,50,27.12788729,29.6435602,25.0135602
176,Butterbache,,http://environment.data.gov.uk/hydrology/id/measures/ae821fd8-259b-4460-9528-aaeffcfea6f5-gw-logged-i-subdaily-mAOD-qualified,342026,365125,53.180041,-2.868906,8.6740942,4849,15,2008,2022,15,1.342871266,1.747698367,0.825385867
177,Asthall Barrow Farm,http://environment.data.gov.uk/hydrology/id/measures/3bcbe579-e8f2-4f3d-9e56-d11780ca5f2b-gw-dipped-i-mAOD-qualified,,428955,210655,51.793796,-1.58156,98.39550781,373,44,1977,2023,47,1.983791992,3.40550781,0.24550781
178,Renwick,,http://environment.data.gov.uk/hydrology/id/measures/bfff135b-8e78-4e91-8777-41db3804b98d-gw-logged-i-subdaily-mAOD-qualified,359355,541775,54.769227,-2.63327,204.2960205,4997,16,2006,2021,16,26.45577349,29.3715205,23.11447883
179,Wrottesley 1,http://environment.data.gov.uk/hydrology/id/measures/81ce2d5f-4acc-4efd-9019-a225188be40e-gw-dipped-i-mAOD-qualified,,382645,300955,52.606088,-2.257696,151.5214539,376,34,1988,2021,34,38.80407358,39.9914539,36.8714539
180,Scamblesby,http://environment.data.gov.uk/hydrology/id/measures/601551ad-3362-47c4-8f7d-82ccae962f19-gw-dipped-i-mAOD-qualified,,529005,378385,53.28673,-0.06628,85.49853516,518,44,1976,2023,48,21.97173979,23.19853516,20.78853516
183,Ainsdale High School,,http://environment.data.gov.uk/hydrology/id/measures/54e06751-a936-4ece-beec-0ccca80d8b34-gw-logged-i-subdaily-mAOD-qualified,331455,412895,53.608095,-3.037443,12.58535576,7783,26,1998,2023,26,1.084923609,1.840022427,0.149877499
184,Little London,,http://environment.data.gov.uk/hydrology/id/measures/3b0b053e-d5f1-4650-8f64-26aad22dfa9e-gw-logged-i-subdaily-mAOD-qualified,462315,159330,51.329657,-1.106982,69.25401306,7371,24,1997,2021,25,6.441488506,8.654846393,3.978054727
185,Bishop Burton Wold,http://environment.data.gov.uk/hydrology/id/measures/b2762ee0-2307-4479-9282-6354a684ade3-gw-dipped-i-mAOD-qualified,,496510,440824,53.854672,-0.534255,60.4925766,467,41,1979,2023,45,46.68987853,57.3525766,25.4425766
186,Westwell,http://environment.data.gov.uk/hydrology/id/measures/2849e521-2c90-4b22-8118-e66ddc1a134d-gw-dipped-i-mAOD-qualified,,421650,209780,51.786258,-1.687531,129.6366577,733,51,1969,2023,55,15.12309699,23.3066577,2.5766577
187,Furnace Grange,http://environment.data.gov.uk/hydrology/id/measures/8f4618a9-0bc3-4491-8226-64ec6705350c-gw-dipped-i-mAOD-qualified,,384495,296555,52.566589,-2.230171,89.9910202,1012,66,1932,2022,91,8.199370002,9.9510202,5.1210202
188,Formby Golf Club,,http://environment.data.gov.uk/hydrology/id/measures/fd196363-58c7-430e-9372-819cdfdc3a19-gw-logged-i-subdaily-mAOD-qualified,329235,409295,53.575447,-3.070172,10.62845325,6732,23,1998,2023,26,1.279003612,1.922994917,0.479619917
189,South Wonston,http://environment.data.gov.uk/hydrology/id/measures/d08f5277-e545-4015-8d62-60be949afaec-gw-dipped-i-mAOD-qualified,,446015,135655,51.118339,-1.343945,118.5975037,256,23,2001,2023,23,64.57933964,69.8075037,53.0275037
190,Frodsham Marsh,,http://environment.data.gov.uk/hydrology/id/measures/b6a9cd9d-5287-47bc-9426-fef516e651d0-gw-logged-i-subdaily-mAOD-qualified,348520,378220,53.298407,-2.773868,10.14060116,9853,36,1986,2022,37,4.110026841,6.92060116,2.89210116
191,Coven Lane,http://environment.data.gov.uk/hydrology/id/measures/78c43624-0cfa-4da7-9be5-71cb500b041d-gw-dipped-i-mAOD-qualified,,389865,304415,52.637376,-2.151191,101.8431778,446,40,1983,2022,40,1.796305603,3.4331778,-0.2968222
192,Burderop Down,http://environment.data.gov.uk/hydrology/id/measures/8f88c682-2ba0-4825-aab0-a2a2eaa0a1a9-gw-dipped-i-mAOD-qualified,,416605,176735,51.489317,-1.762226,177.0248108,381,36,1983,2023,41,23.77945647,32.8848108,11.3648108
193,Tilshead High Street,,http://environment.data.gov.uk/hydrology/id/measures/fa3a36f8-9e55-4080-88bd-b26023beab41-gw-logged-i-subdaily-mAOD-qualified,403080,147950,51.230725,-1.957264,99.72311401,9971,29,1995,2023,29,12.84904734,21.34061401,-0.133552657
194,Cabourne Parva,http://environment.data.gov.uk/hydrology/id/measures/0ed38825-3e82-4495-b48a-74f4187273a6-gw-dipped-i-mAOD-qualified,,515105,403055,53.511573,-0.265691,96.34920502,293,28,1992,2023,32,49.96528011,52.31920502,47.61920502
195,Whiteways Lodge,http://environment.data.gov.uk/hydrology/id/measures/19a4c6d0-5c79-4a12-acd3-59bc3dd61aa7-gw-dipped-i-mAOD-qualified,,500125,110785,50.887883,-0.577903,106.0746841,423,33,1991,2023,33,55.67969592,73.7946841,33.7746841
196,Hall Farm Euston,http://environment.data.gov.uk/hydrology/id/measures/ee09511c-dc22-4768-a85e-67498b1a6056-gw-dipped-i-mAOD-qualified,,589228,277884,52.366316,0.777913,21.48988342,219,26,1998,2023,26,3.969609447,5.75988342,2.28988342
197,Snape Hill,http://environment.data.gov.uk/hydrology/id/measures/68cc1b49-44b2-43b4-b4d6-9190bcc4cf34-gw-dipped-i-mAOD-qualified,,602237,275240,52.337935,0.967126,32.98043823,229,22,1998,2019,22,5.663407662,6.97043823,3.64043823
198,Oxford,http://environment.data.gov.uk/hydrology/id/measures/ca3d0164-ee1d-444e-bc6c-04d600498b61-gw-dipped-i-mAOD-qualified,http://environment.data.gov.uk/hydrology/id/measures/ca3d0164-ee1d-444e-bc6c-04d600498b61-gw-logged-i-subdaily-mAOD-qualified,454968,202040,51.714399,-1.205771,61.6640625,7356,24,2000,2023,24,2.387275921,2.888354167,1.628854167
199,Wooton Lodge,http://environment.data.gov.uk/hydrology/id/measures/fda56aa9-48b4-446d-b021-69f3e22b40e0-gw-dipped-i-mAOD-qualified,,409685,343975,52.993009,-1.857154,117.265274,928,52,1971,2022,52,2.762666241,5.895274,0.485274
200,Wrington,http://environment.data.gov.uk/hydrology/id/measures/efb58ee8-7eb5-4d89-8d2d-9aca8f5c4ea4-gw-dipped-i-mAOD-qualified,,347556,163486,51.367996,-2.754727,92.24687195,310,32,1991,2023,33,49.70422679,66.39687195,18.11687195
201,Spotted Cow,http://environment.data.gov.uk/hydrology/id/measures/df2f37c7-237b-4b92-9169-6c965e48e29c-gw-dipped-i-mAOD-qualified,http://environment.data.gov.uk/hydrology/id/measures/df2f37c7-237b-4b92-9169-6c965e48e29c-gw-logged-i-subdaily-mAOD-qualified,412835,196695,51.66888,-1.815801,77.45097351,7726,22,2002,2023,22,1.524512358,2.622806843,0.476681843
202,Putteridge Bury,http://environment.data.gov.uk/hydrology/id/measures/88c7e69b-e4b3-4483-a438-0d6f9046cdee-gw-dipped-i-mAOD-qualified,,511700,224560,51.90838,-0.377628,168.4252472,623,56,1967,2023,57,58.56860194,63.5952472,49.5052472
203,Owlpen,http://environment.data.gov.uk/hydrology/id/measures/c6879642-6078-45b7-b7da-0ca95ef104e5-gw-dipped-i-mAOD-qualified,,380985,197855,51.679128,-2.276404,226.9339294,215,20,2003,2022,20,92.32318521,92.9339294,91.6339294
204,Poplar Farm South,http://environment.data.gov.uk/hydrology/id/measures/f3449486-188f-40c2-8bd8-8bdcf9e40967-gw-dipped-i-mAOD-qualified,,503639,435630,53.806634,-0.427667,15.55747604,373,34,1989,2023,35,10.04672537,18.89747604,1.14747604
205,Tiverton Road,,http://environment.data.gov.uk/hydrology/id/measures/813241d4-9163-4494-a28e-3dbcf9c4dd6e-gw-logged-i-subdaily-mAOD-qualified,301382,107538,50.858913,-3.402528,69.8438797,5332,16,2006,2021,16,2.666239284,4.060546367,1.154056783
206,Stanford Water,http://environment.data.gov.uk/hydrology/id/measures/79c5b336-a819-4625-9bac-da622edd0102-gw-dipped-i-mAOD-qualified,http://environment.data.gov.uk/hydrology/id/measures/79c5b336-a819-4625-9bac-da622edd0102-gw-logged-i-subdaily-mAOD-qualified,586140,294833,52.519569,0.742053,20.78034973,1274,22,1998,2019,22,0.256335691,0.976933063,-0.48965027
207,Redlands Farm,,http://environment.data.gov.uk/hydrology/id/measures/df8a0e14-f399-4e49-b9a6-447b5c580fb4-gw-logged-i-subdaily-mAOD-qualified,528412,239022,52.034736,-0.129413,61.05342865,155,20,1998,2019,22,12.93355123,14.82342865,9.32342865
208,Sharstead Farm,http://environment.data.gov.uk/hydrology/id/measures/20b5dc9a-3930-4641-9d1a-004775735ffc-gw-dipped-i-mAOD-qualified,,577589,163996,51.347292,0.548667,77.01148224,473,41,1982,2022,41,65.30924123,69.53148224,57.95148224
209,Pool Bridge,http://environment.data.gov.uk/hydrology/id/measures/439e20e1-ad7a-45d8-8952-3aa4ac877203-gw-dipped-i-mAOD-qualified,,448301,456701,54.00407,-1.264563,13.66442585,325,28,1984,2011,28,2.603933542,3.53442585,1.76442585
210,Garboldisham,http://environment.data.gov.uk/hydrology/id/measures/408c78e1-2523-4eab-ad2d-9971c975c49e-gw-dipped-i-mAOD-qualified,,599829,283266,52.410877,0.93661,40.04125214,222,22,1998,2019,22,18.01039628,20.35125214,14.91125214
211,Bully Hill,http://environment.data.gov.uk/hydrology/id/measures/513871d5-fefb-4ff8-a833-367464342ba2-gw-dipped-i-mAOD-qualified,,517345,392025,53.411983,-0.236042,140.6054535,414,43,1973,2023,51,34.36668538,36.1154535,31.8154535
212,Wetwang,http://environment.data.gov.uk/hydrology/id/measures/03af12e4-32de-4521-8094-303c5cc093ec-gw-dipped-i-mAOD-qualified,http://environment.data.gov.uk/hydrology/id/measures/03af12e4-32de-4521-8094-303c5cc093ec-gw-logged-i-subdaily-mAOD-qualified,495770,459389,54.021611,-0.539688,42.91136932,12140,52,1971,2023,53,20.63696193,26.25886932,8.926468278
215,Houndean Bottom,http://environment.data.gov.uk/hydrology/id/measures/ff553415-a989-4233-af6b-2a3613769adb-gw-dipped-i-mAOD-qualified,http://environment.data.gov.uk/hydrology/id/measures/ff553415-a989-4233-af6b-2a3613769adb-gw-logged-i-subdaily-mAOD-qualified,539286,110151,50.874079,-0.021704,39.60405731,8934,48,1976,2023,48,29.3620787,41.34405731,10.18489064
216,Northend stud,http://environment.data.gov.uk/hydrology/id/measures/22c1bab8-1a9b-47de-a4ab-b4ab8b5377db-gw-dipped-i-mAOD-qualified,,561311,266770,52.275407,0.362962,27.78457069,252,24,1998,2023,26,19.40945164,20.05457069,18.46457069
217,Barlow Station,http://environment.data.gov.uk/hydrology/id/measures/f6468a6a-4fc5-4be3-a887-999aff91c69e-gw-dipped-i-mAOD-qualified,,463809,428121,53.745555,-1.03393,4.962476254,557,49,1975,2023,49,7.862224908,11.71247625,2.762476254
218,The Lodge Nocton,http://environment.data.gov.uk/hydrology/id/measures/a255ee0a-bd73-4ce9-8e90-9ec6636c6e4c-gw-dipped-i-mAOD-qualified,,505345,363625,53.15933,-0.425905,31.95514107,866,48,1972,2023,52,12.5130741,16.42514107,6.39514107
219,Doghouse Grove,http://environment.data.gov.uk/hydrology/id/measures/b88fbadd-768f-4fef-abc7-bdc587bd5574-gw-dipped-i-mAOD-qualified,,587028,248040,52.09907,0.729145,80.43638611,617,36,1983,2023,41,41.23345256,42.71638611,40.39638611
220,Fawley Green,http://environment.data.gov.uk/hydrology/id/measures/1f46803f-638c-4e7c-957e-0e4467ebbdcd-gw-dipped-i-mAOD-qualified,,475615,186915,51.576033,-0.910235,148.9482422,700,69,1954,2023,70,94.56369934,103.2182422,85.0282422
221,Tumby Park,http://environment.data.gov.uk/hydrology/id/measures/38923d81-c063-4b48-89f9-7433d85edb6b-gw-dipped-i-mAOD-qualified,,524245,360425,53.126511,-0.144626,14.30692959,233,21,1998,2021,24,3.048989676,28.32692959,0.30692959
222,Windy Oak,,http://environment.data.gov.uk/hydrology/id/measures/abdfcf92-402f-4ea7-b73e-14a00cd2e24e-gw-logged-i-subdaily-mAOD-qualified,361025,322395,52.797689,-2.57948,72.75595856,4880,18,2001,2023,23,5.367221031,13.03095856,2.51595856
223,Fox Covert,http://environment.data.gov.uk/hydrology/id/measures/b103aff5-b206-457b-8fd6-986fa9ed4aa3-gw-dipped-i-mAOD-qualified,,397294,650597,55.74872,-2.044666,64.44258881,376,32,1992,2023,32,38.73179094,41.09258881,35.28258881
225,Barcombe Farm,http://environment.data.gov.uk/hydrology/id/measures/ea6fe910-b23d-4d92-9f14-b9718ce30fce-gw-dipped-i-mAOD-qualified,,369922,103216,50.827691,-2.428417,127.7218933,370,34,1989,2023,35,5.101812219,8.6318933,0.5318933
226,Woolton Farm,http://environment.data.gov.uk/hydrology/id/measures/58af1ab0-7fc5-4137-bdd1-4ee36548995d-gw-dipped-i-mAOD-qualified,,618699,156894,51.269211,1.133766,47.14906311,269,32,1986,2022,37,33.79739025,39.82906311,30.41906311
227,Cissbury Ring,http://environment.data.gov.uk/hydrology/id/measures/e2133a51-dda5-44b8-993b-6a50be10c4cf-gw-dipped-i-mAOD-qualified,,513965,108505,50.864826,-0.381931,128.1636658,220,22,2001,2023,23,94.29130216,96.9536658,91.4036658
228,Court Barns Farm,http://environment.data.gov.uk/hydrology/id/measures/be80e611-d638-46f2-b6d5-68258ba5eb37-gw-dipped-i-mAOD-qualified,,564854,259968,52.213259,0.411527,64.8899231,241,24,1998,2023,26,34.69490235,42.9799231,21.9199231
229,Rattling Court,http://environment.data.gov.uk/hydrology/id/measures/044ff164-55a5-4e61-a69d-e55de8c16c0f-gw-dipped-i-mAOD-qualified,,623984,153700,51.238485,1.207405,50.24606705,411,52,1967,2022,56,29.07940038,32.12606705,25.92606705
230,Granham Farm,http://environment.data.gov.uk/hydrology/id/measures/5c381d65-34b6-467e-9190-9c7da542583c-gw-dipped-i-mAOD-qualified,,418175,167485,51.406099,-1.740086,165.2292175,846,41,1983,2023,41,35.88369741,38.6092175,30.9892175
231,Shatcombe Lane,http://environment.data.gov.uk/hydrology/id/measures/1757c7ee-b4fe-4f6c-b5e3-ea67febd6cf1-gw-dipped-i-mAOD-qualified,,354998,94857,50.751556,-2.639273,233.5646973,149,14,2010,2023,14,61.51630804,63.3046973,60.1346973
232,East Preston,http://environment.data.gov.uk/hydrology/id/measures/7ad6c190-b626-4e90-ac9b-7e9afbdb2cb8-gw-dipped-i-mAOD-qualified,,507065,102705,50.814006,-0.481634,7.614554882,413,43,1979,2023,45,1.860027037,3.514554882,0.304554882
233,Wickham Lane,http://environment.data.gov.uk/hydrology/id/measures/e7b49df4-43bf-46fe-95d2-205bb07094d3-gw-dipped-i-mAOD-qualified,http://environment.data.gov.uk/hydrology/id/measures/e7b49df4-43bf-46fe-95d2-205bb07094d3-gw-logged-i-subdaily-mAOD-qualified,621914,158529,51.282648,1.180793,5.79953146,4615,26,1998,2023,26,0.593526429,1.06765646,0.008239793
234,Smelting Mill,http://environment.data.gov.uk/hydrology/id/measures/c408be3a-bdbd-4a50-b29d-3e0503548c39-gw-dipped-i-mAOD-qualified,,406085,343255,52.986589,-1.9108,109.832901,291,29,1994,2022,29,10.99107969,11.672901,10.222901
235,Salt Pit Lane,http://environment.data.gov.uk/hydrology/id/measures/f52675c8-15f0-4ce2-9089-da4170946ba9-gw-dipped-i-mAOD-qualified,,350905,414765,53.627089,-2.743807,37.3818512,245,47,1970,2022,53,4.012014465,4.8518512,3.2518512
236,College Wood,http://environment.data.gov.uk/hydrology/id/measures/ecfa0af3-91fe-4437-9819-c8594c3514c0-gw-dipped-i-mAOD-qualified,http://environment.data.gov.uk/hydrology/id/measures/ecfa0af3-91fe-4437-9819-c8594c3514c0-gw-logged-i-subdaily-mAOD-qualified,567460,164680,51.356509,0.403685,145.2801208,3539,31,1980,2022,43,113.367321,114.9301208,103.5201208
237,Croftsmill Bridge,http://environment.data.gov.uk/hydrology/id/measures/a46b1e55-ca3f-4420-9e74-fd0224d96099-gw-dipped-i-mAOD-qualified,,330575,324955,52.817633,-3.031573,75.70907593,177,30,1990,2021,32,2.024838642,2.22907593,1.79907593
238,Pickworth Plain,http://environment.data.gov.uk/hydrology/id/measures/efd3410d-714e-4a1e-b8ea-715feda78f0b-gw-dipped-i-mAOD-qualified,,497435,312335,52.699923,-0.559547,80.21742249,491,40,1975,2019,45,12.21288074,14.65742249,6.77742249
239,Breckles,http://environment.data.gov.uk/hydrology/id/measures/ab6e1a38-8182-43f2-9de6-8e7600dd6676-gw-dipped-i-mAOD-qualified,,593970,294410,52.513043,0.857059,36.33558655,230,22,1998,2019,22,1.71184742,3.66558655,-0.26441345
240,Houghton Down Farm,http://environment.data.gov.uk/hydrology/id/measures/02f6687e-9550-4dd8-b2cb-16987ac747ae-gw-dipped-i-mAOD-qualified,,433862,135251,51.115551,-1.517608,67.58678436,234,38,1967,2022,56,31.86691257,33.89678436,29.77678436
241,LAMARSH,http://environment.data.gov.uk/hydrology/id/measures/5bbd4645-4022-4606-9b7d-299a474292ac-gw-dipped-i-mAOD-qualified,,589082,235690,51.987467,0.75227,24.08074951,1249,48,1970,2020,51,4.890565363,5.73074951,4.03074951
242,Turnworth,http://environment.data.gov.uk/hydrology/id/measures/62d005cc-fcda-4d67-8bba-67463b25376e-gw-dipped-i-mAOD-qualified,http://environment.data.gov.uk/hydrology/id/measures/62d005cc-fcda-4d67-8bba-67463b25376e-gw-logged-i-subdaily-mAOD-qualified,381559,108649,50.877036,-2.263469,161.8320007,344,31,1992,2023,32,29.94157337,32.5020007,22.7420007
243,Bembridge Fort,http://environment.data.gov.uk/hydrology/id/measures/82f8c28d-b1a6-401e-8f48-00ba96c1fc78-gw-dipped-i-mAOD-qualified,,462605,85905,50.669453,-1.115459,101.3278809,410,37,1986,2023,38,42.0133931,47.7578809,33.5478809
244,Mid Comp Farm,http://environment.data.gov.uk/hydrology/id/measures/8521d2f9-b23c-4e79-9f75-cbe94571bbeb-gw-dipped-i-mAOD-qualified,,563456,156631,51.28536,0.342544,109.1085968,486,47,1972,2022,51,17.39063384,20.7485968,7.1585968
245,Wistanswick,http://environment.data.gov.uk/hydrology/id/measures/efeea677-a6ec-4f1b-bca5-cfcfbda2849e-gw-dipped-i-mAOD-qualified,,366665,328965,52.857126,-2.496509,89.05838013,596,52,1971,2022,52,1.69076268,2.97838013,0.29838013
246,Serlby Park,http://environment.data.gov.uk/hydrology/id/measures/262fe6bc-6bde-4fc3-a56e-99847260e328-gw-dipped-i-mAOD-qualified,,463335,389875,53.401896,-1.04886,11.50585938,375,33,1991,2023,33,5.803032713,6.54585938,5.01585938
248,Kelleythorpe,http://environment.data.gov.uk/hydrology/id/measures/082b865a-5f83-4848-8167-7d68a13a4ea6-gw-dipped-i-mAOD-qualified,,501050,457019,53.999313,-0.459914,19.38921928,410,35,1989,2023,35,2.510292451,4.03921928,0.94921928
249,Haverhill,http://environment.data.gov.uk/hydrology/id/measures/a2b8d5ea-fe9c-4221-93e6-bb5e8a76ee20-gw-dipped-i-mAOD-qualified,,568072,244868,52.076657,0.45112,61.80718994,377,42,1978,2023,46,2.51780002,3.69718994,1.57718994
250,Victory Quarry,http://environment.data.gov.uk/hydrology/id/measures/8c53eb1b-3916-4069-b19d-44ce6d6da122-gw-dipped-i-mAOD-qualified,,407505,376915,53.289138,-1.888872,351.51651,726,48,1976,2023,48,12.97695077,20.96651,5.78651
251,Chalfont Centre,http://environment.data.gov.uk/hydrology/id/measures/bb1f27a7-ff2e-4df8-a6a6-e23cb8799ca1-gw-dipped-i-mAOD-qualified,,500279,192724,51.624404,-0.552772,101.0925293,485,49,1974,2023,50,39.12345714,43.7225293,34.2825293
253,Clement Street,http://environment.data.gov.uk/hydrology/id/measures/2e010737-f478-43a3-9555-59d21e803d7a-gw-dipped-i-mAOD-qualified,,554105,170672,51.414123,0.214639,22.91054726,503,49,1971,2023,53,8.430726186,10.13054726,6.60054726
254,Tangmere Road Deep,http://environment.data.gov.uk/hydrology/id/measures/1c36c3d4-274e-4d21-b428-ae8cb386e7a9_245412008-gw-dipped-i-mAOD-qualified,,490035,105735,50.844141,-0.722552,13.60632038,170,23,2001,2023,23,1.995673321,8.07632038,-0.36367962
255,Tangmere Road Shallow,http://environment.data.gov.uk/hydrology/id/measures/1c36c3d4-274e-4d21-b428-ae8cb386e7a9_245412009-gw-dipped-i-mAOD-qualified,,490055,105745,50.844228,-0.722265,13.30128098,412,38,1981,2023,43,0.950382922,2.18128098,0.16128098
256,Oakley,http://environment.data.gov.uk/hydrology/id/measures/d5942260-0c0e-403e-a1eb-b27746c13b05-gw-dipped-i-mAOD-qualified,http://environment.data.gov.uk/hydrology/id/measures/d5942260-0c0e-403e-a1eb-b27746c13b05-gw-logged-i-subdaily-mAOD-qualified,457005,150956,51.254924,-1.184521,115.8658447,6453,21,2003,2023,21,21.94054463,28.1558447,13.96792803
257,Clive Mine,,http://environment.data.gov.uk/hydrology/id/measures/650ed534-b1eb-4f4c-bd6b-e1a503e4475a-gw-logged-i-subdaily-mAOD-qualified,351385,323895,52.810388,-2.722666,122.5076294,4552,27,1995,2021,27,55.2260455,64.6476294,46.74642107
258,Ashengrove Farm,http://environment.data.gov.uk/hydrology/id/measures/6206bfbb-9684-4b47-b533-3e276ccbef72-gw-dipped-i-mAOD-qualified,,444505,87105,50.681905,-1.37142,81.19592285,229,21,1987,2023,37,34.74876128,37.65592285,24.13592285
259,Acton,http://environment.data.gov.uk/hydrology/id/measures/fa1a7f87-2d21-4336-85dd-592a68b5d39c-gw-dipped-i-mAOD-qualified,,588020,246120,52.081492,0.742552,42.45149231,336,41,1979,2023,45,4.957533977,6.06149231,4.19149231
260,Gnosall,http://environment.data.gov.uk/hydrology/id/measures/aa848a47-3ae3-413c-b3eb-dcf4bb4a3be5-gw-dipped-i-mAOD-qualified,,380865,320535,52.782042,-2.285126,98.58473206,321,30,1992,2021,30,19.36348595,21.57473206,17.53473206
261,Alcester Road,http://environment.data.gov.uk/hydrology/id/measures/4a510fa5-99f1-4d47-801d-f089c436331c-gw-dipped-i-mAOD-qualified,,419274,255129,52.194058,-1.719442,41.81736755,282,28,1989,2023,35,13.95034627,29.73736755,0.53736755
262,Southfield House Whatley,http://environment.data.gov.uk/hydrology/id/measures/747a7ef1-4b7d-4fc8-97be-555dc21d452a-gw-dipped-i-mAOD-qualified,,373267,146714,51.218988,-2.384146,122.5882416,535,50,1974,2023,50,13.29425095,18.1982416,8.6782416
263,Gobions Wood,http://environment.data.gov.uk/hydrology/id/measures/a0698c71-d90d-46a1-a37e-4c9b84e027f8-gw-dipped-i-mAOD-qualified,,524940,203960,51.720449,-0.192679,110.5442734,386,36,1988,2023,36,46.61339257,49.0142734,43.3442734
264,Soundess House,http://environment.data.gov.uk/hydrology/id/measures/1f8e5180-c942-457f-bb97-9180ca9c3313-gw-dipped-i-mAOD-qualified,,471045,187253,51.579665,-0.976102,175.2384186,248,36,1971,2023,53,87.49789441,91.0084186,84.4284186
265,Shrodells Hospital,http://environment.data.gov.uk/hydrology/id/measures/24aba096-bd39-49b7-b04a-6ea517b307d5-gw-dipped-i-mAOD-qualified,,510583,195751,51.649682,-0.403026,72.01491547,815,53,1960,2023,64,25.34560013,39.05491547,20.03491547
268,Lynwood,http://environment.data.gov.uk/hydrology/id/measures/9751e08b-9610-4250-95bb-722d10b63a6c-gw-dipped-i-mAOD-qualified,,502208,188605,51.587035,-0.526115,78.99538422,222,26,1993,2019,27,35.0703617,36.31538422,33.11538422
269,MacMillan Way,,http://environment.data.gov.uk/hydrology/id/measures/38673a1a-d6e7-4d0b-90f3-c8b0a8314cd1-gw-logged-i-subdaily-mAOD-qualified,393551,198831,51.688191,-2.094682,147.9472351,3633,13,2010,2023,14,56.67281331,65.0132351,47.72015177
270,BNFL,,http://environment.data.gov.uk/hydrology/id/measures/75d6608f-04c2-4e88-a72b-30a2c3c7b399-gw-logged-i-subdaily-mAOD-qualified,347695,431335,53.775695,-2.795142,19.4644146,7892,24,1998,2022,25,12.65402003,15.88224793,11.17312293
271,Etton Wold House,http://environment.data.gov.uk/hydrology/id/measures/2578a2c1-caa2-4644-9489-e3f60bc8160f-gw-dipped-i-mAOD-qualified,,494609,442896,53.873638,-0.562507,55.20554352,433,39,1979,2023,45,34.45877678,41.25554352,22.13554352
272,Occold,http://environment.data.gov.uk/hydrology/id/measures/5c39438d-8c00-4ff2-9780-c2d76c7e65ac-gw-dipped-i-mAOD-qualified,,615703,270600,52.29116,1.161498,55.28421783,361,36,1983,2022,40,24.84712642,25.60421783,23.25421783
273,Mill Farm,,http://environment.data.gov.uk/hydrology/id/measures/832a91c0-cda0-41cb-afc2-9ab01b4f3026-gw-logged-i-subdaily-mAOD-qualified,576215,244195,52.068083,0.569471,50.15557098,2280,21,1993,2019,27,7.059162716,7.78557098,6.07557098
275,Great Revel End Farm,http://environment.data.gov.uk/hydrology/id/measures/a330f522-c74e-4632-862d-85cd5bd72f15-gw-dipped-i-mAOD-qualified,,508420,211120,51.788235,-0.429499,127.1229324,410,39,1985,2023,39,29.60720069,33.9929324,24.2129324
276,Springfield Road,http://environment.data.gov.uk/hydrology/id/measures/a0d13219-d90f-4071-bda7-b43bda9d81e7-gw-dipped-i-mAOD-qualified,,440825,187745,51.587082,-1.412131,113.0213318,2166,54,1968,2023,56,20.78459665,24.0513318,17.6013318
277,Water End farm,http://environment.data.gov.uk/hydrology/id/measures/77252e87-d098-4b9a-95f9-e946f4eafa3a-gw-dipped-i-mAOD-qualified,,584414,301916,52.583759,0.720579,33.03230286,106,24,1995,2023,29,7.288434935,9.07230286,6.01230286
278,Bishopstone Deep,http://environment.data.gov.uk/hydrology/id/measures/72d4ac11-5156-4c0c-9dde-d7e7d2c73a4e_342604009-gw-dipped-i-mAOD-qualified,http://environment.data.gov.uk/hydrology/id/measures/72d4ac11-5156-4c0c-9dde-d7e7d2c73a4e_342604009-gw-logged-i-subdaily-mAOD-qualified,547208,101122,50.790978,0.08719,8.557402611,1343,34,1990,2023,34,7.457746468,8.266985944,6.191569278
279,Bishopstone Shallow,http://environment.data.gov.uk/hydrology/id/measures/72d4ac11-5156-4c0c-9dde-d7e7d2c73a4e_342604005-gw-dipped-i-mAOD-qualified,http://environment.data.gov.uk/hydrology/id/measures/72d4ac11-5156-4c0c-9dde-d7e7d2c73a4e_342604005-gw-logged-i-subdaily-mAOD-qualified,547176,101133,50.791085,0.086741,7.894124985,5720,23,1999,2022,24,6.941522576,7.693020818,5.881374985
283,Jossenblock Farm,http://environment.data.gov.uk/hydrology/id/measures/99231c1b-a1c8-49d0-868d-d6d4328fc3df-gw-dipped-i-mAOD-qualified,,633369,146155,51.166998,1.336712,74.24710846,166,31,1972,2023,52,58.03975906,60.75710846,55.00710846
284,Sandboils Chalk,http://environment.data.gov.uk/hydrology/id/measures/8212bf62-d262-46d6-a55d-c5bd87aca48f_142502922-gw-dipped-i-mAOD-qualified,,455860,117070,50.950362,-1.20616,30.26263237,296,28,1996,2023,28,0.181618856,1.06263237,-0.27736763
286,Myddleton Lane,,http://environment.data.gov.uk/hydrology/id/measures/a9c4136c-b9fc-4a0e-8296-f2753a907d8e-gw-logged-i-subdaily-mAOD-qualified,362150,393380,53.435819,-2.571195,24.42409515,9801,34,1983,2023,41,12.96847676,22.75409515,8.859261817
287,Forstal Farm,http://environment.data.gov.uk/hydrology/id/measures/e62e28ae-60e2-488d-a9e5-c298d3add0e1-gw-dipped-i-mAOD-qualified,,624617,160944,51.30327,1.221006,3.558632851,212,30,1989,2023,35,1.05882153,1.408632851,0.518632851
288,Gallows Hall,http://environment.data.gov.uk/hydrology/id/measures/e1dcbc4a-2cc1-432c-b6a5-5d59bd7d9aea-gw-dipped-i-mAOD-qualified,,562960,236248,52.000751,0.372491,71.91120911,388,42,1980,2023,44,1.830358595,6.17120911,0.03120911
289,Coleshill,http://environment.data.gov.uk/hydrology/id/measures/56f9a0fe-6850-4e4c-9fb2-e4a869513136-gw-dipped-i-mAOD-qualified,,495777,194283,51.639201,-0.617361,110.7551498,382,31,1991,2023,33,33.46713933,39.3251498,22.2651498
290,Bishop Middleham,http://environment.data.gov.uk/hydrology/id/measures/7350a20e-ede6-48df-93bf-4bb7ccb229fd-gw-dipped-i-mAOD-qualified,,432731,531148,54.674326,-1.493953,94.38263702,821,46,1968,2022,55,20.83233739,34.34263702,14.10263702
292,Wangford,http://environment.data.gov.uk/hydrology/id/measures/3cc48e8d-88b0-4d1f-ae73-2d8fe099dfdf-gw-dipped-i-mAOD-qualified,,575677,283589,52.42206,0.582097,7.243828297,258,24,1998,2023,26,3.50475853,4.913828297,1.933828297
293,Upwaltham,http://environment.data.gov.uk/hydrology/id/measures/177f72c0-7493-44d1-a553-99b53c1bc282-gw-dipped-i-mAOD-qualified,,495655,115155,50.927925,-0.640289,133.6361084,448,41,1982,2023,42,36.83430036,45.9961084,19.9761084
294,North Leigh,http://environment.data.gov.uk/hydrology/id/measures/29e8aa13-1bab-4d08-aced-db6a19bc22cd-gw-dipped-i-mAOD-qualified,,439155,213075,51.814934,-1.433398,126.8368301,494,44,1980,2023,44,40.82575723,48.0768301,32.0768301
295,Kingston Hill Barn,http://environment.data.gov.uk/hydrology/id/measures/372ee96a-80be-490f-865c-7be68c7c32ba-gw-dipped-i-mAOD-qualified,http://environment.data.gov.uk/hydrology/id/measures/372ee96a-80be-490f-865c-7be68c7c32ba-gw-logged-i-subdaily-mAOD-qualified,432275,186275,51.574418,-1.535669,203.5362396,7418,47,1973,2021,49,70.20596907,80.3462396,56.84053127
296,Brettenham Heath,,http://environment.data.gov.uk/hydrology/id/measures/a3844f4b-3f65-41eb-be38-2d6d31096226-gw-logged-i-subdaily-mAOD-qualified,592907,285849,52.436552,0.836464,35.54245758,3066,20,1998,2020,23,14.02212,16.76170758,10.07245758
297,Sleaford 1,http://environment.data.gov.uk/hydrology/id/measures/9aaab011-630e-41e2-8e41-e53d1b09eabd-gw-dipped-i-mAOD-qualified,,506038,345901,52.999932,-0.421382,15.44710922,391,31,1989,2023,35,0.681226867,4.61710922,-1.06289078
298,Abbots Clough,http://environment.data.gov.uk/hydrology/id/measures/318d7311-b8c2-4ab8-ae86-5bfc056331f2-gw-dipped-i-mAOD-qualified,,348905,373095,53.252382,-2.767266,23.92744064,426,42,1968,2021,54,13.58222937,17.67744064,8.68744064
299,Melbourne House,,http://environment.data.gov.uk/hydrology/id/measures/dd2745d8-aefd-4bda-b219-414321be260d-gw-logged-i-subdaily-mAOD-qualified,629311,331030,52.827962,1.402414,17.10412979,4219,50,1974,2023,50,3.642967578,4.28412979,3.00412979
300,Plex,,http://environment.data.gov.uk/hydrology/id/measures/e17ffe5d-3260-4d4b-9a5b-c194223e9113-gw-logged-i-subdaily-mAOD-qualified,350765,319325,52.769253,-2.731174,104.8256073,3041,13,1997,2023,27,39.80183829,45.6156073,39.1043573
301,Perrywood,http://environment.data.gov.uk/hydrology/id/measures/be27dc1c-d000-4944-937c-78f6d2c56cda-gw-dipped-i-mAOD-qualified,,604460,155720,51.263951,0.929269,105.3147659,215,21,1999,2019,21,63.85569613,66.1347659,58.8447659
302,Ladies Mile,http://environment.data.gov.uk/hydrology/id/measures/51855618-757a-474c-bde9-0dcb6907e94c-gw-dipped-i-mAOD-qualified,http://environment.data.gov.uk/hydrology/id/measures/51855618-757a-474c-bde9-0dcb6907e94c-gw-logged-i-subdaily-mAOD-qualified,531819,109458,50.8696,-0.128019,91.28765869,7289,38,1980,2023,44,66.89641528,71.63765869,50.23974202
303,Summergate Lane,http://environment.data.gov.uk/hydrology/id/measures/8d21b25f-9c8d-452a-b616-9309ea0e15d5-gw-dipped-i-mAOD-qualified,,548655,364605,53.157817,0.22184,4.848472595,269,28,1992,2023,32,0.901483747,1.268472595,0.588472595
304,Weeting Hall,http://environment.data.gov.uk/hydrology/id/measures/2b2c94b7-a2c5-45b5-8853-b4d3f25d6524-gw-dipped-i-mAOD-qualified,,577524,289106,52.47101,0.61216,10.02476501,227,23,1998,2022,25,4.519390561,5.98476501,2.68476501
306,Elsham,http://environment.data.gov.uk/hydrology/id/measures/4313798c-8674-46ac-bb3c-5361f839188f-gw-dipped-i-mAOD-qualified,,504755,412365,53.597383,-0.418583,69.45297241,377,36,1983,2023,41,27.63880795,29.92297241,25.90297241
309,Weir Farm,http://environment.data.gov.uk/hydrology/id/measures/ad02e357-c0a5-4a80-9f6c-35ddc4982d5c-gw-dipped-i-mAOD-qualified,,363505,320825,52.78375,-2.542525,65.06360626,405,41,1982,2022,41,10.90649515,11.64360626,9.93360626
310,Little Wytherford,http://environment.data.gov.uk/hydrology/id/measures/fab35e4e-58f9-4c12-81eb-c81fd1392e11-gw-dipped-i-mAOD-qualified,,356005,320305,52.778515,-2.653646,63.30538559,458,42,1976,2021,46,3.218857206,3.80538559,2.64538559
311,Hazelwood Cottage,http://environment.data.gov.uk/hydrology/id/measures/0d0e93e9-907c-4a5c-84a6-2bc5469d5ab3-gw-dipped-i-mAOD-qualified,,589670,149272,51.211146,0.714129,108.6147919,342,46,1971,2023,53,6.115756812,8.1047919,4.0647919
312,Wilsford 2,http://environment.data.gov.uk/hydrology/id/measures/6afdb9ba-7f0e-47ff-9816-0cca62e2d869-gw-dipped-i-mAOD-qualified,,501015,342715,52.972272,-0.497194,25.83256149,343,34,1983,2023,41,4.573348662,6.96256149,2.08256149
313,Wribbenhall,http://environment.data.gov.uk/hydrology/id/measures/01389a05-bf8c-41e6-9f4e-cc344af947f3-gw-dipped-i-mAOD-qualified,,379555,275845,52.380246,-2.301773,35.30760574,335,33,1989,2022,34,4.841754994,6.30760574,3.34760574
314,Chilton Candover,http://environment.data.gov.uk/hydrology/id/measures/0c276be0-ca79-4944-9713-69e54299fb68-gw-dipped-i-mAOD-qualified,,459813,140490,51.160538,-1.14603,93.03100586,315,42,1972,2022,51,3.19916459,8.11100586,-0.12899414
315,Ringmer Gote Farm House,http://environment.data.gov.uk/hydrology/id/measures/b21183a0-ba7e-4906-ab0a-9c070b970528-gw-dipped-i-mAOD-qualified,,544838,111828,50.887786,0.057817,22.56301117,583,59,1964,2023,60,0.711587499,2.34301117,-0.09698883
316,Buxton Heath,http://environment.data.gov.uk/hydrology/id/measures/6107a2a2-6415-407e-9865-7ce11389a19e-gw-dipped-i-mAOD-qualified,,617220,321530,52.747702,1.216954,32.21957779,299,28,1995,2022,28,0.755464078,1.24957779,0.19957779
317,North Pickenham Road,http://environment.data.gov.uk/hydrology/id/measures/e99c95b1-d210-43ca-94e4-76e0bfdb0bc4-gw-dipped-i-mAOD-qualified,,586680,306568,52.624758,0.756607,36.76398468,104,22,1995,2023,29,0.902253911,1.74398468,0.34398468
318,Great Shefford,http://environment.data.gov.uk/hydrology/id/measures/1b8694a4-e246-49bd-91ca-267cc7b0372c-gw-dipped-i-mAOD-qualified,http://environment.data.gov.uk/hydrology/id/measures/1b8694a4-e246-49bd-91ca-267cc7b0372c-gw-logged-i-subdaily-mAOD-qualified,438130,175470,51.476906,-1.452353,106.2253952,7866,50,1971,2023,53,0.374197539,1.2153952,-0.419438133
320,Little Ensdon,http://environment.data.gov.uk/hydrology/id/measures/9a8249b0-4e0b-4fd4-8387-55d7c6473c52-gw-dipped-i-mAOD-qualified,,341465,317795,52.754571,-2.868725,77.22447968,326,31,1988,2022,35,18.22553796,20.83447968,17.00447968
321,Limpenhoe,http://environment.data.gov.uk/hydrology/id/measures/1ea8cbc0-85f8-41a6-8b5b-dcbef0b409b6-gw-dipped-i-mAOD-qualified,,640112,303213,52.57368,1.542126,6.875574112,230,24,1995,2020,26,6.484834982,7.045574112,6.265574112
322,Rocky Lane,http://environment.data.gov.uk/hydrology/id/measures/34d518d0-bc5b-4374-a061-6de7b7b2dc31-gw-dipped-i-mAOD-qualified,,408105,288935,52.498252,-1.882034,104.1811371,147,37,1985,2022,38,8.029164311,11.6011371,5.9311371
323,Corby Hill,http://environment.data.gov.uk/hydrology/id/measures/0270c83e-8774-4777-bc7a-171b9d578fbc-gw-dipped-i-mAOD-qualified,,349475,556675,54.902212,-2.789432,51.27215195,220,43,1976,2022,47,0.767015586,2.06215195,-0.18784805
324,Fox Farm,http://environment.data.gov.uk/hydrology/id/measures/d4d623ef-6162-4ea2-a708-e01cb926540c-gw-dipped-i-mAOD-qualified,,414670,227860,51.949037,-1.787959,187.9916992,212,20,1998,2023,26,25.14301995,28.4516992,20.7816992
325,Potters Fen,http://environment.data.gov.uk/hydrology/id/measures/56e6f633-f6bb-48b3-a2ec-bb99f2133fea-gw-dipped-i-mAOD-qualified,,598157,312125,52.670585,0.92927,41.94960785,180,19,2004,2022,19,0.288213406,0.39160785,0.18960785
326,Ferrers Wheelbarrow Town,http://environment.data.gov.uk/hydrology/id/measures/8e1644df-a140-4f30-b92c-053270bf852f-gw-dipped-i-mAOD-qualified,,615090,145953,51.172345,1.075551,119.0787506,331,25,1970,2023,54,49.85461163,61.0687506,29.4387506
328,Rooks Farm,http://environment.data.gov.uk/hydrology/id/measures/cd10d1b8-ad73-4e8e-887b-ac3e69f19a6a-gw-dipped-i-mAOD-qualified,,470625,399765,53.489853,-0.937017,0.807346106,846,51,1973,2023,51,1.939071874,2.987346106,0.677346106
329,Scripton Bridge,http://environment.data.gov.uk/hydrology/id/measures/d04793b3-7159-4ea4-aabb-bfaa1f0fb8dd-gw-dipped-i-mAOD-qualified,http://environment.data.gov.uk/hydrology/id/measures/d04793b3-7159-4ea4-aabb-bfaa1f0fb8dd-gw-logged-i-subdaily-mAOD-qualified,423541,539029,54.745658,-1.635825,110.4498901,7552,28,1994,2023,30,62.85496168,89.8898901,56.6698901
330,Pinnegar Bottom,http://environment.data.gov.uk/hydrology/id/measures/892ed11f-eaf5-4281-980c-9565753d2035-gw-dipped-i-mAOD-qualified,,396585,195155,51.655167,-2.050755,106.3791122,641,60,1961,2023,63,13.1117175,24.2891122,1.1291122
331,Bigmoor,http://environment.data.gov.uk/hydrology/id/measures/4be2c2bf-7ead-4414-b130-8cbbf8463937-gw-dipped-i-mAOD-qualified,,428085,374605,53.267688,-1.580365,265.7308655,2215,76,1948,2023,76,15.33562848,19.6608655,12.4408655
332,Biddestone 3,http://environment.data.gov.uk/hydrology/id/measures/84fb3247-7188-4c1b-9d50-eef7b5053400_90887433-gw-dipped-i-mAOD-qualified,,387019,172876,51.454708,-2.188204,107.1826172,200,19,2005,2023,19,53.6365172,56.3126172,49.6826172
333,Biddestone 2,http://environment.data.gov.uk/hydrology/id/measures/84fb3247-7188-4c1b-9d50-eef7b5053400_91487434-gw-dipped-i-mAOD-qualified,,387048,172874,51.454691,-2.187787,106.8396149,200,19,2005,2023,19,27.4651349,29.9696149,23.7696149
334,Frilsham,http://environment.data.gov.uk/hydrology/id/measures/692dc73f-29f0-4cbf-8c0b-55853efe93c9-gw-dipped-i-mAOD-qualified,http://environment.data.gov.uk/hydrology/id/measures/692dc73f-29f0-4cbf-8c0b-55853efe93c9-gw-logged-i-subdaily-mAOD-qualified,453765,173045,51.453837,-1.227613,74.31488037,8450,32,1992,2023,32,1.173959688,2.689838703,-0.24899463
335,Charleston Bottom,http://environment.data.gov.uk/hydrology/id/measures/70ea537d-ab3f-4a0a-958b-d64174339728-gw-dipped-i-mAOD-qualified,,555077,100881,50.786763,0.198646,95.36019135,183,20,1970,2022,53,83.85385255,83.99019135,83.27019135
336,Elveden Gap,http://environment.data.gov.uk/hydrology/id/measures/b3ecef2c-7e4c-48f6-8df3-9229a864b050-gw-dipped-i-mAOD-qualified,,583944,280993,52.396032,0.702103,41.73812485,218,23,1998,2023,26,26.23977623,28.24812485,22.83812485
337,Summerleaze,,http://environment.data.gov.uk/hydrology/id/measures/fbaeefd4-2b6c-4f42-ad24-f434df8a90d1-gw-logged-i-subdaily-mAOD-qualified,489058,182936,51.538305,-0.717302,24.74103546,4349,15,2006,2021,16,2.536567454,6.24903546,0.673452127
338,Lowes Plantation,http://environment.data.gov.uk/hydrology/id/measures/dff89ac7-8bab-4a45-a78b-e8ba7e16cf30-gw-dipped-i-mAOD-qualified,,608480,337260,52.892338,1.097702,52.45941162,276,26,1995,2022,28,0.024455098,0.35941162,-0.22058838
339,Terrys Lodge Farm,http://environment.data.gov.uk/hydrology/id/measures/75fa966d-9889-4053-a91d-7be0f2274ba6-gw-dipped-i-mAOD-qualified,,559006,160641,51.322647,0.280572,203.332962,386,40,1969,2021,53,83.9433506,84.612962,83.102962
340,South Cockerington,http://environment.data.gov.uk/hydrology/id/measures/d8b07b1e-af81-4efb-8210-a9c3a0240a9f-gw-dipped-i-mAOD-qualified,,537245,389465,53.384192,0.062037,15.74083233,405,38,1982,2023,42,12.29809159,13.21083233,11.28083233
341,Hensall,http://environment.data.gov.uk/hydrology/id/measures/01327f5f-90f1-432c-81b5-ab418f6cdf5e-gw-dipped-i-mAOD-qualified,,460046,422932,53.699368,-1.091986,4.519355297,462,44,1980,2023,44,5.521112873,7.649355297,3.059355297
342,Perry Farm,,http://environment.data.gov.uk/hydrology/id/measures/e3cf8a22-c313-44b4-a23b-51dbd7ac2416-gw-logged-i-subdaily-mAOD-qualified,334685,330265,52.865874,-2.971664,82.02026367,9833,31,1993,2023,31,4.831284121,5.80363867,3.557374781
343,Bradley Wood,http://environment.data.gov.uk/hydrology/id/measures/781e8a47-54dd-4d0d-96c9-bcf0629a449d-gw-dipped-i-mAOD-qualified,http://environment.data.gov.uk/hydrology/id/measures/781e8a47-54dd-4d0d-96c9-bcf0629a449d-gw-logged-i-subdaily-mAOD-qualified,443416,173940,51.46277,-1.376432,110.2136612,7211,56,1967,2023,57,11.31659246,15.4536612,6.3136612
344,Flint Farm,http://environment.data.gov.uk/hydrology/id/measures/ca54c29f-dfc7-4924-a337-2cc25a44c9a3-gw-dipped-i-mAOD-qualified,,598759,286938,52.444235,0.923082,18.97187424,228,22,1998,2019,22,1.412093538,2.32187424,0.84187424
346,East Curthwaite,,http://environment.data.gov.uk/hydrology/id/measures/87b10a0c-db0d-41c8-9a68-ef7330b3f518-gw-logged-i-subdaily-mAOD-qualified,333635,548625,54.828028,-3.034555,45.44743729,8037,45,1976,2023,48,6.306124304,7.27033729,5.31743729
347,Old Station Mendlesham,http://environment.data.gov.uk/hydrology/id/measures/e91e2e7a-6c0d-4ce0-afbd-5b35e209fb01-gw-dipped-i-mAOD-qualified,,610331,265479,52.247268,1.079662,53.23359299,289,31,1989,2023,35,19.49553071,20.18359299,18.97359299
348,Alvescot Field Farm,http://environment.data.gov.uk/hydrology/id/measures/0d9da381-66d9-408a-aff8-8f94a1246a23-gw-dipped-i-mAOD-qualified,http://environment.data.gov.uk/hydrology/id/measures/0d9da381-66d9-408a-aff8-8f94a1246a23-gw-logged-i-subdaily-mAOD-qualified,426155,206595,51.757431,-1.622462,101.7549744,3878,51,1970,2023,54,11.12636385,15.9649744,1.8349744
349,Barlby Sandstone,http://environment.data.gov.uk/hydrology/id/measures/96d46264-912e-4938-85d5-991cb0b5aa59-gw-dipped-i-mAOD-qualified,,462605,435757,53.814324,-1.050637,7.517924786,373,36,1988,2023,36,7.030672775,9.817924786,3.537924786
350,Widemarsh Common,,http://environment.data.gov.uk/hydrology/id/measures/2c1282d8-0735-4da4-8d25-a6af7b2f9ebb-gw-logged-i-subdaily-mAOD-qualified,350656,240828,52.06361,-2.72118,54.55699158,9250,42,1975,2023,49,1.687756145,3.295408247,0.016047136
351,High Fallowfield,http://environment.data.gov.uk/hydrology/id/measures/387b6858-7d64-4b34-bb70-fb45056064c6-gw-dipped-i-mAOD-qualified,http://environment.data.gov.uk/hydrology/id/measures/387b6858-7d64-4b34-bb70-fb45056064c6-gw-logged-i-subdaily-mAOD-qualified,437414,544845,54.797083,-1.419582,117.6902924,8648,27,1997,2023,27,39.80904043,45.3302924,33.77244865
352,Nor Hill,http://environment.data.gov.uk/hydrology/id/measures/e88c6c9a-f3e4-4659-a2aa-fe12e309aed2-gw-dipped-i-mAOD-qualified,,381095,299785,52.595518,-2.280517,94.55975342,697,50,1973,2022,50,15.68824696,16.88975342,14.46975342
353,Ripple Nurseries,http://environment.data.gov.uk/hydrology/id/measures/88ec0488-b6c0-4246-87c7-752c35f58a45-gw-dipped-i-mAOD-qualified,,634949,149701,51.198182,1.361587,35.90968704,280,45,1967,2023,57,27.62725847,30.94968704,23.59968704
354,Lowfield,http://environment.data.gov.uk/hydrology/id/measures/6244d6a6-c677-4977-9c81-fde9d6e37914-gw-dipped-i-mAOD-qualified,,428771,528193,54.648012,-1.555648,81.40643311,541,48,1967,2023,57,7.406728859,16.44643311,1.03643311
355,Brimpsfield,http://environment.data.gov.uk/hydrology/id/measures/4bfa00f8-d9de-4be6-8fec-2ff30a8275f7-gw-dipped-i-mAOD-qualified,,392715,212128,51.807734,-2.107058,263.7643433,141,14,2009,2022,14,62.11845678,62.7243433,61.3543433
356,Havenhills,http://environment.data.gov.uk/hydrology/id/measures/2993deb4-5549-43f4-971d-2c42d4ded3ba-gw-dipped-i-mAOD-qualified,,373615,303335,52.627117,-2.391225,97.79315948,602,45,1977,2022,46,34.14694686,36.51315948,32.58315948
357,Bishops Sutton,http://environment.data.gov.uk/hydrology/id/measures/034e91a3-01c2-425d-958d-2badc27d1056-gw-dipped-i-mAOD-qualified,http://environment.data.gov.uk/hydrology/id/measures/034e91a3-01c2-425d-958d-2badc27d1056-gw-logged-i-subdaily-mAOD-qualified,461048,132026,51.084309,-1.129802,80.40840912,3772,43,1981,2023,43,3.661868784,5.35840912,1.99840912
358,Bitchfield,http://environment.data.gov.uk/hydrology/id/measures/73f09b62-95bf-4fe5-829b-a9e1719f4777-gw-dipped-i-mAOD-qualified,,498485,328575,52.845676,-0.539137,69.70904541,538,44,1975,2023,49,23.53668482,28.62904541,12.79904541
359,Shotatton Deep,http://environment.data.gov.uk/hydrology/id/measures/19c7889d-d2b7-4cf9-ac83-d65beba18185-gw-dipped-i-mAOD-qualified,,336515,322855,52.799492,-2.94304,104.1943283,264,24,1996,2021,26,21.13815406,23.8043283,19.0943283
360,Woodbury Common,,http://environment.data.gov.uk/hydrology/id/measures/7257d791-fb4a-4b5d-b164-f1aea3ef437a-gw-logged-i-subdaily-mAOD-qualified,305330,87754,50.681714,-3.341354,114.4200058,5400,52,1967,2022,56,14.14469493,16.7200058,11.15917247
361,Ashridge Wood,http://environment.data.gov.uk/hydrology/id/measures/a6a97d2a-7e19-4367-badd-774580a72de9-gw-dipped-i-mAOD-qualified,http://environment.data.gov.uk/hydrology/id/measures/a6a97d2a-7e19-4367-badd-774580a72de9-gw-logged-i-subdaily-mAOD-qualified,449405,177925,51.498108,-1.289674,151.2588654,7224,50,1973,2023,51,52.59159723,65.1888654,39.2788654
362,Woolverton 2,http://environment.data.gov.uk/hydrology/id/measures/9e96a7b9-2426-416b-954e-3bfd2dec9941-gw-dipped-i-mAOD-qualified,,379066,153069,51.276373,-2.301489,53.90572357,182,17,2007,2023,17,5.304696097,8.44572357,2.20472357
363,Pencombe,,http://environment.data.gov.uk/hydrology/id/measures/4c7a54df-cbbc-436d-a614-20429fe03846-gw-logged-i-subdaily-mAOD-qualified,359134,252229,52.166797,-2.598893,204.4978943,8692,29,1994,2023,30,44.27338915,55.67756097,30.2969568
364,Sandall Beat,http://environment.data.gov.uk/hydrology/id/measures/ddbe0f13-b3c5-4765-bbf8-89c28f854673-gw-dipped-i-mAOD-qualified,,461475,404015,53.529195,-1.074071,7.457140446,455,43,1979,2023,45,3.579349237,6.317140446,1.277140446
365,Kirkby Wetlands 1,http://environment.data.gov.uk/hydrology/id/measures/1b9933dc-3a50-4f44-a7fd-8ea18edcdd97_8_898-gw-dipped-i-mAOD-qualified,,522055,361935,53.140583,-0.176762,15.57534409,301,25,1998,2023,26,0.910560037,1.43534409,0.55534409
366,Kirkby Wetlands 2,http://environment.data.gov.uk/hydrology/id/measures/1b9933dc-3a50-4f44-a7fd-8ea18edcdd97_8_899-gw-dipped-i-mAOD-qualified,,522135,361785,53.139217,-0.175624,14.74739456,303,25,1998,2023,26,0.996041425,1.41739456,0.63739456
367,Kirkby Moor Farm,http://environment.data.gov.uk/hydrology/id/measures/1b9933dc-3a50-4f44-a7fd-8ea18edcdd97_8_901-gw-dipped-i-mAOD-qualified,,522355,362345,53.144198,-0.172123,20.8289299,312,25,1998,2023,26,4.259102977,4.8389299,3.5489299
368,Moor Farm 2,http://environment.data.gov.uk/hydrology/id/measures/1b9933dc-3a50-4f44-a7fd-8ea18edcdd97_8_906-gw-dipped-i-mAOD-qualified,,522015,364065,53.159729,-0.176549,16.85438728,295,24,1998,2023,26,0.726726263,1.24438728,0.12438728
369,Moor Farm 1,http://environment.data.gov.uk/hydrology/id/measures/1b9933dc-3a50-4f44-a7fd-8ea18edcdd97_8_904-gw-dipped-i-mAOD-qualified,,522305,363505,53.154631,-0.172428,18.5412426,303,25,1998,2023,26,0.707909267,1.1712426,0.2612426
370,Croxton Park,http://environment.data.gov.uk/hydrology/id/measures/0d7ba8c6-1f04-4e05-9c06-b120f500c68f-gw-dipped-i-mAOD-qualified,,586777,288970,52.466705,0.748144,41.68437576,240,23,1998,2023,26,15.44404243,19.15437576,10.48437576
371,Astol,http://environment.data.gov.uk/hydrology/id/measures/50c24291-f787-40fc-806e-bfa5cf8dccae-gw-dipped-i-mAOD-qualified,http://environment.data.gov.uk/hydrology/id/measures/50c24291-f787-40fc-806e-bfa5cf8dccae-gw-logged-i-subdaily-mAOD-qualified,373645,300105,52.598083,-2.390523,71.03107452,3141,45,1977,2022,46,11.38786694,13.60107452,9.27107452
372,Swaffham Prior,http://environment.data.gov.uk/hydrology/id/measures/7e84b927-8e69-4169-9dd9-bd5630dce629-gw-dipped-i-mAOD-qualified,,556267,263365,52.246275,0.287521,15.38433552,245,24,1998,2023,26,12.54335593,13.23433552,10.99433552
373,Cross Hill,,http://environment.data.gov.uk/hydrology/id/measures/2bae0013-487f-4347-acd6-d7a5f23937ba-gw-logged-i-subdaily-mAOD-qualified,328005,384325,53.350879,-3.083016,64.25289917,10156,35,1986,2023,38,40.87708472,43.7502325,38.2028575
374,Park Farm Ousden,http://environment.data.gov.uk/hydrology/id/measures/5c932b26-490b-49f6-817b-ed5e2d7eea2b-gw-dipped-i-mAOD-qualified,,572834,259670,52.208139,0.528057,81.33831787,113,23,1998,2023,26,28.94845061,33.78831787,25.16831787
375,Littlecote Park Farm,http://environment.data.gov.uk/hydrology/id/measures/1197ac40-8c21-42e0-8b62-b5e61703433c-gw-dipped-i-mAOD-qualified,,430060,169400,51.422814,-1.569062,163.1639099,571,52,1972,2023,52,58.33260517,59.5739099,56.4839099
376,Takeley,http://environment.data.gov.uk/hydrology/id/measures/4d8731fa-0d21-4060-9c16-11e4184fd148-gw-dipped-i-mAOD-qualified,,558871,219869,51.854795,0.305424,84.73069763,202,20,2003,2023,21,35.96045011,36.82069763,35.11069763
377,Heath House,http://environment.data.gov.uk/hydrology/id/measures/76f710cc-cee5-4d7e-ae86-642b6777fa8f-gw-dipped-i-mAOD-qualified,http://environment.data.gov.uk/hydrology/id/measures/76f710cc-cee5-4d7e-ae86-642b6777fa8f-gw-logged-i-subdaily-mAOD-qualified,575269,150837,51.229803,0.508935,120.1025238,3095,46,1972,2023,52,31.03839968,31.6625238,29.9825238
378,Wingate Farm,,http://environment.data.gov.uk/hydrology/id/measures/9d066ee9-861d-4749-b692-7689d7871fcf-gw-logged-i-subdaily-mAOD-qualified,619490,145460,51.166248,1.138094,139.7235107,6398,19,2005,2023,19,82.48672144,92.17409403,63.77021903
379,Dane Farm,http://environment.data.gov.uk/hydrology/id/measures/3e870a6a-d979-47d4-b588-b28ce9d9d79a-gw-dipped-i-mAOD-qualified,,617632,147888,51.188758,1.113029,86.3008194,421,33,1970,2023,54,27.35426358,46.4508194,9.9408194
381,Valiers Bottom,http://environment.data.gov.uk/hydrology/id/measures/00572b29-bab0-451e-b45d-162d297c4bbb-gw-dipped-i-mAOD-qualified,http://environment.data.gov.uk/hydrology/id/measures/00572b29-bab0-451e-b45d-162d297c4bbb-gw-logged-i-subdaily-mAOD-qualified,512910,110750,50.885213,-0.396223,96.44393158,7306,44,1976,2023,48,32.92859431,45.83538991,14.43226491
382,Lyndhurst,http://environment.data.gov.uk/hydrology/id/measures/aaa67d6a-2179-45ba-a1a4-258abef61796-gw-dipped-i-mAOD-qualified,http://environment.data.gov.uk/hydrology/id/measures/aaa67d6a-2179-45ba-a1a4-258abef61796-gw-logged-i-subdaily-mAOD-qualified,430800,107988,50.870575,-1.563655,38.00640869,5624,26,1998,2023,26,3.383835189,4.61640869,1.919950357
383,Walford Heath,http://environment.data.gov.uk/hydrology/id/measures/5a644ede-22a7-4729-bd28-83d2e98d3df4-gw-dipped-i-mAOD-qualified,,344925,319975,52.77453,-2.817832,84.89070892,617,45,1975,2021,47,27.62644636,29.05070892,26.57070892
384,Arreton Craft Centre,http://environment.data.gov.uk/hydrology/id/measures/905edf21-7315-4a3c-9bff-bda3e917db9e-gw-dipped-i-mAOD-qualified,,453305,86665,50.677211,-1.246937,39.72230148,1798,43,1981,2023,43,11.18164547,14.39230148,7.85230148
385,Horseclose Copse,http://environment.data.gov.uk/hydrology/id/measures/8a1ed07c-7302-443c-9919-c60cae8d09da-gw-dipped-i-mAOD-qualified,http://environment.data.gov.uk/hydrology/id/measures/8a1ed07c-7302-443c-9919-c60cae8d09da-gw-logged-i-subdaily-mAOD-qualified,434544,172256,51.448238,-1.504298,138.9803925,7114,43,1979,2022,44,33.01692157,37.30960083,26.3003925
386,Pincheon Green,http://environment.data.gov.uk/hydrology/id/measures/1a11d846-5f84-4fab-8b42-09c62efdaed9-gw-dipped-i-mAOD-qualified,http://environment.data.gov.uk/hydrology/id/measures/1a11d846-5f84-4fab-8b42-09c62efdaed9-gw-logged-i-subdaily-mAOD-qualified,465715,417600,53.65077,-1.007261,3.304710865,2599,43,1981,2023,43,5.159642476,5.974710865,3.654710865
387,Kirbymoorside,http://environment.data.gov.uk/hydrology/id/measures/0d5ab83f-bb0c-4600-9250-84ca72c4a26f-gw-dipped-i-mAOD-qualified,,468861,485857,54.263736,-0.944293,44.91014481,397,37,1982,2018,37,6.20443952,7.24014481,3.90014481
388,Calbourne Bottom,http://environment.data.gov.uk/hydrology/id/measures/c24629a4-b9c8-46a1-9426-d8484ecf7e15-gw-dipped-i-mAOD-qualified,http://environment.data.gov.uk/hydrology/id/measures/c24629a4-b9c8-46a1-9426-d8484ecf7e15-gw-logged-i-subdaily-mAOD-qualified,442050,84740,50.660821,-1.406435,106.7666855,4100,45,1977,2022,46,17.7282442,19.9766855,14.5371855
389,Beetley Meadow,http://environment.data.gov.uk/hydrology/id/measures/4cbe1d43-39b5-4957-a029-5469f9187fd4-gw-dipped-i-mAOD-qualified,http://environment.data.gov.uk/hydrology/id/measures/4cbe1d43-39b5-4957-a029-5469f9187fd4-gw-logged-i-subdaily-mAOD-qualified,598181,317395,52.717889,0.932796,29.91617203,1281,12,2010,2022,13,0.298782898,0.837713697,0.12617203
392,Weterton house Farm,http://environment.data.gov.uk/hydrology/id/measures/be3306d3-2a2f-4d6f-9dea-fcdf5400d06c-gw-dipped-i-mAOD-qualified,http://environment.data.gov.uk/hydrology/id/measures/be3306d3-2a2f-4d6f-9dea-fcdf5400d06c-gw-logged-i-subdaily-mAOD-qualified,436162,530750,54.670515,-1.440801,92.17933655,10321,32,1992,2023,32,20.15091814,25.58033655,16.17937822
393,Park House,http://environment.data.gov.uk/hydrology/id/measures/45396c0b-7cb7-466e-920c-1c6e89cbbb8d-gw-dipped-i-mAOD-qualified,,551377,133923,51.084654,0.159911,108.6316376,317,50,1972,2023,52,1.439192805,8.2716376,-1.1283624
394,Myton Roundhill,http://environment.data.gov.uk/hydrology/id/measures/c62ccbba-7565-4c53-8be0-2a8bc6080dd0-gw-dipped-i-mAOD-qualified,,445373,466558,54.092919,-1.307761,16.70097733,499,44,1980,2023,44,4.396147671,5.56097733,3.16097733
395,Holly Farm Upton,http://environment.data.gov.uk/hydrology/id/measures/b86aa853-6fad-4094-8bcb-ca856bf1139e-gw-dipped-i-mAOD-qualified,,638320,313500,52.66677,1.523146,0.519332051,298,28,1995,2022,28,0.362261581,0.779332051,-0.010667949
396,Green Lane Cottages,http://environment.data.gov.uk/hydrology/id/measures/37a06972-59af-4a4b-8085-36c4108e040e-gw-dipped-i-mAOD-qualified,http://environment.data.gov.uk/hydrology/id/measures/37a06972-59af-4a4b-8085-36c4108e040e-gw-logged-i-subdaily-mAOD-qualified,440955,529934,54.662817,-1.366602,87.99256897,8588,42,1981,2022,42,58.19413952,66.39256897,54.71838147
397,Knights Enham,http://environment.data.gov.uk/hydrology/id/measures/f60d5f80-3310-42a6-bab9-4e377d55a0cc-gw-dipped-i-mAOD-qualified,,436155,148055,51.230539,-1.483567,81.86170959,634,59,1965,2023,59,10.28388625,13.41170959,7.38170959
398,Brighton Victoria Gardens,http://environment.data.gov.uk/hydrology/id/measures/de80ba6d-28fb-4262-99bd-9ed5bf8d4386-gw-dipped-i-mAOD-qualified,,531390,104463,50.824805,-0.135902,11.86867619,444,40,1976,2023,48,5.900095109,10.08867619,2.05867619
399,Shillingthorpe 1,http://environment.data.gov.uk/hydrology/id/measures/e8a90292-b300-4db4-881c-95676d9018f9-gw-dipped-i-mAOD-qualified,,507365,311205,52.687893,-0.413026,15.30923462,217,24,1998,2023,26,1.019340611,6.52923462,-0.46076538
400,The Belt,http://environment.data.gov.uk/hydrology/id/measures/4b3aa4d8-0146-4d41-af7a-cf519740c429-gw-dipped-i-mAOD-qualified,,421705,146761,51.219633,-1.690592,142.6736603,165,16,2004,2023,20,52.98419363,59.1836603,46.2706603
401,Smallburgh,http://environment.data.gov.uk/hydrology/id/measures/a67e156f-d2fc-4789-8f7b-7d4f26cf3a01-gw-dipped-i-mAOD-qualified,,632522,324505,52.768038,1.445349,1.809574246,274,27,1996,2022,27,0.703986655,0.869574246,0.581574246
402,Fulstow,http://environment.data.gov.uk/hydrology/id/measures/85c271f9-2fda-4d43-ac2b-da472140608b-gw-dipped-i-mAOD-qualified,,533225,395935,53.44334,0.004369,8.767721176,527,44,1976,2023,48,3.132521935,5.787721176,1.197721176
403,Portsdown hill,http://environment.data.gov.uk/hydrology/id/measures/08d247a9-b42f-40d8-9f21-2cc69bdede74-gw-dipped-i-mAOD-qualified,,461435,106685,50.856421,-1.12855,75.98136139,212,19,2005,2023,19,60.57730479,63.09136139,50.95136139
404,Upton Green,http://environment.data.gov.uk/hydrology/id/measures/17d018f4-b25d-485f-919e-d2dfc556c78f-gw-dipped-i-mAOD-qualified,,639430,313860,52.669512,1.539789,-0.626980543,290,28,1995,2022,28,0.452671181,1.893019457,-0.116980543
405,Mimram 5,http://environment.data.gov.uk/hydrology/id/measures/72c4286f-54bc-4662-a024-2cfed38614c6-gw-dipped-i-mAOD-qualified,,521560,216650,51.835233,-0.237146,71.19749451,261,25,1999,2023,25,2.452513667,3.65749451,1.37749451
406,Great Bradley,http://environment.data.gov.uk/hydrology/id/measures/62dd9e73-3419-4d12-87ad-4a13f99e7d0e-gw-dipped-i-mAOD-qualified,,567744,253150,52.151147,0.450416,77.95269012,344,33,1985,2023,39,5.841004073,7.82269012,3.59269012
407,Broad Hinton,http://environment.data.gov.uk/hydrology/id/measures/69876d93-402d-4610-8b3b-b096db1809df-gw-dipped-i-mAOD-qualified,,410365,176685,51.489015,-1.852101,192.4673157,1084,51,1970,2023,54,29.37421607,36.8173157,15.0873157
408,Amwell 5,http://environment.data.gov.uk/hydrology/id/measures/d92d57ba-38f1-4d3b-967f-208875fe2d88-gw-dipped-i-mAOD-qualified,,537980,212960,51.798266,-0.000452,42.43677902,213,22,2002,2023,22,13.19959592,14.61677902,12.23677902
409,Stock Lane,http://environment.data.gov.uk/hydrology/id/measures/09b855df-25fa-40e0-b7c6-edd824490a63-gw-dipped-i-mAOD-qualified,,423870,173807,51.462732,-1.657788,211.9088745,555,53,1969,2023,55,88.33573936,98.8588745,74.6288745
412,Newton Regis,http://environment.data.gov.uk/hydrology/id/measures/47c904e1-d53e-4c60-a326-aee09219ece2_1211GW-gw-dipped-i-mAOD-qualified,,428175,307385,52.663446,-1.584841,78.54444885,1035,54,1969,2022,54,7.112255613,10.36444885,4.80444885
413,Aunsby,http://environment.data.gov.uk/hydrology/id/measures/684545d5-b167-4672-9948-e61d1de0479b-gw-dipped-i-mAOD-qualified,,505145,339485,52.942455,-0.436765,31.08219147,642,49,1971,2023,53,14.55261203,25.63219147,2.41219147
414,Honey Hill,http://environment.data.gov.uk/hydrology/id/measures/2414ad8d-d6ed-4a53-bb66-db120d578b1a-gw-dipped-i-mAOD-qualified,,498338,466324,54.083436,-0.49826,163.1629333,457,41,1978,2022,45,122.9133709,135.7029333,106.0129333
415,Bletchingdon,http://environment.data.gov.uk/hydrology/id/measures/037dbdec-e19c-4cff-b2e9-3fe5b8d0abd2-gw-dipped-i-mAOD-qualified,,450485,217315,51.852146,-1.268436,92.95050049,450,41,1979,2023,45,22.0442116,24.43050049,19.59050049
416,Mayertorne Manor,http://environment.data.gov.uk/hydrology/id/measures/f27118b4-4547-4e76-b300-e3987e65ab64-gw-dipped-i-mAOD-qualified,,487923,204502,51.73234,-0.728253,145.4151001,642,31,1993,2023,31,14.08528702,24.8151001,3.6751001
417,Orby,http://environment.data.gov.uk/hydrology/id/measures/29f4c41d-70bc-460b-8135-f167b0269176-gw-dipped-i-mAOD-qualified,,547715,367255,53.181881,0.209015,11.25228119,788,45,1975,2023,49,15.36395632,22.16228119,6.33228119
418,The Citadel,http://environment.data.gov.uk/hydrology/id/measures/79c2ce76-c3d2-4227-bfd9-c388f2db6c04-gw-dipped-i-mAOD-qualified,,357155,328365,52.851058,-2.637659,147.1105957,311,38,1982,2021,40,66.76652818,69.5905957,63.9005957
419,Scopwick,http://environment.data.gov.uk/hydrology/id/measures/288d84b9-c96e-4e08-b3ec-9591e931690d-gw-dipped-i-mAOD-qualified,http://environment.data.gov.uk/hydrology/id/measures/288d84b9-c96e-4e08-b3ec-9591e931690d-gw-logged-i-subdaily-mAOD-qualified,506395,357885,53.107545,-0.412111,17.157547,812,39,1976,2018,43,0.503938626,3.587547,-1.882453
420,Read Scar Wood,,http://environment.data.gov.uk/hydrology/id/measures/94f21263-0963-4cdc-9999-3a729884ec8e-gw-logged-i-subdaily-mAOD-qualified,358600,431320,53.776544,-2.629682,14.73062515,11490,43,1980,2023,44,4.384728513,6.410910864,1.825958483
421,Lowgate Balne,http://environment.data.gov.uk/hydrology/id/measures/b3f8302f-d3ed-4a74-8ef5-2c2f87490473-gw-dipped-i-mAOD-qualified,,459149,418024,53.655362,-1.106504,5.384476662,503,48,1976,2023,48,4.63302537,5.814476662,3.054476662
422,Boxted,http://environment.data.gov.uk/hydrology/id/measures/205ca18c-4dd1-4b1f-aaa9-0883bb05c992-gw-dipped-i-mAOD-qualified,,582677,251260,52.12944,0.667423,42.2816391,385,40,1979,2023,45,1.21376897,2.4116391,-0.0083609
423,Woolbeding Pound Common,http://environment.data.gov.uk/hydrology/id/measures/c724e894-bfec-4bd4-97e3-ba300a233997-gw-dipped-i-mAOD-qualified,,487395,125045,51.018146,-0.755415,157.72229,338,38,1980,2023,44,44.93808882,45.81229,43.58229
424,Fishlocks,http://environment.data.gov.uk/hydrology/id/measures/510ae5ae-b16d-4a3f-84d4-654492e7fb42-gw-dipped-i-mAOD-qualified,,435099,509761,54.481976,-1.459781,16.65039063,443,50,1974,2023,50,5.321677312,6.59039063,3.16039063
425,Harcourt,,http://environment.data.gov.uk/hydrology/id/measures/246abd0a-deae-453c-96ab-e6708df45fed_26059-gw-logged-i-subdaily-mAOD-qualified,355695,325825,52.828108,-2.658992,78.35467529,9256,29,1993,2023,31,11.29035263,11.95821696,10.50381815
428,Chicheley Gardens,http://environment.data.gov.uk/hydrology/id/measures/3854c1a4-817d-4d0a-a24f-ec17291fb42c-gw-dipped-i-mAOD-qualified,,514024,191246,51.608506,-0.354777,66.85094452,349,30,1994,2023,30,31.25621673,34.53094452,25.69094452
429,Sparholme Wood,http://environment.data.gov.uk/hydrology/id/measures/13c48a7c-aa2b-4feb-ba0d-5de2d0337780-gw-dipped-i-mAOD-qualified,,304355,506465,54.444538,-3.476393,70.04586792,397,45,1973,2022,50,12.7428125,16.67586792,9.31586792
430,Southend Goxhill,http://environment.data.gov.uk/hydrology/id/measures/f39d1c2c-ca6c-4d0a-90e9-7bfb69c218f9-gw-dipped-i-mAOD-qualified,,510715,420895,53.672796,-0.325534,9.41047287,614,54,1959,2023,65,6.399805118,9.43047287,2.33047287
