No,label,dipped,logged,easting,northing,lat,long,Revised aquifers,CHARACTER,FLOW_MECHA,Elevation of station,state,data amount,mean_depth,max_depth,min_depth,first year,last year,total year,cover year,classification,ts_slope (cm/year),pw_R2,windows,start year,end year,regions,5km circle,Irrigation intensity,LTA_PR
1,Burton Coggles,http://environment.data.gov.uk/hydrology/id/measures/c7e13884-4a02-4df3-b184-09aea28cf8e8_3_020-gw-dipped-i-mAOD-qualified,http://environment.data.gov.uk/hydrology/id/measures/c7e13884-4a02-4df3-b184-09aea28cf8e8_3_020-gw-logged-i-subdaily-mAOD-qualified,498965,325135,52.814674,-0.533054,Oolites,Highly productive aquifer,Flow is virtually all through fractures and other discontinuities,71.46416473,qualified,1162,19.32156662,21.77416473,14.47416473,10/1/1974,10/1/2019,46,40,Slow decreasing,3.365393519,0.090633391,37,10/1/1974,10/1/2010,Anglian,48.98193227,101,0.418431414
2,Willow Tree Farm,http://environment.data.gov.uk/hydrology/id/measures/ef76b105-7412-45fc-976d-972c1f7e185a_SU29_94-gw-dipped-i-mAOD-qualified,http://environment.data.gov.uk/hydrology/id/measures/ef76b105-7412-45fc-976d-972c1f7e185a_SU29_94-gw-logged-i-subdaily-mAOD-qualified,420565,199295,51.692029,-1.703877,Oolites,Rocks with essentially no groundwater,,72.23679352,qualified,7184,0.759703753,1.582835187,-0.230164813,10/1/2003,10/1/2023,21,21,No trend,-0.426781201,0.07662342,21,10/1/2003,10/1/2023,Thames,120.7160504,251,0.57172082
3,Plucks Gutter,http://environment.data.gov.uk/hydrology/id/measures/2ec41641-3875-4613-8d97-2ddbe6b1a4ad_644801001-gw-dipped-i-mAOD-qualified,,627131,163892,51.328738,1.258886,Carboniferous Limestone,Moderately productive aquifer,Significant intergranular flow,2.24781251,qualified,227,1.215521761,2.03781251,0.04781251,10/1/1981,10/1/2023,43,35,No trend,-0.610416667,0.067785543,43,10/1/1981,10/1/2023,Southern,139.4297237,1001,0.043507818
4,Wimpole Hall,,http://environment.data.gov.uk/hydrology/id/measures/cd8c5956-30bd-4242-9d18-ce24ce0a3f30_TL35_001-gw-logged-i-subdaily-mAOD-qualified,532774,250554,52.13733,-0.061377,Lower Greensand,Rocks with essentially no groundwater,,37.54615784,qualified,120,14.25210784,16.00515784,11.34615784,10/1/1998,10/1/2020,23,21,Sudden upward change,-20.55493827,0.970427973,9,10/1/2005,10/1/2013,Anglian,108.5353892,5001,0.025914801
5,Walcot,http://environment.data.gov.uk/hydrology/id/measures/aded6ffd-1b3c-4fce-ad90-ec995a90a2a7_2_536-gw-dipped-i-mAOD-qualified,,511685,355775,53.087506,-0.333857,Oolites,Rocks with essentially no groundwater,,5.339609623,negative groundwater depth,584,-10.12857531,-3.720390377,-16.32039038,10/1/1975,10/1/2023 0:00,49,45,,,,,,,,,,
6,Wood Mill Farm,,http://environment.data.gov.uk/hydrology/id/measures/2234c370-5154-4bb5-aae6-b7606120f917_2887-gw-logged-i-subdaily-mAOD-qualified,362675,323245,52.805447,-2.555107,Permian Sandstone,Highly productive aquifer,Significant intergranular flow,65.72026825,qualified,2747,2.525466102,7.602490472,1.556934917,10/1/2002,10/1/2023,22,11,Slow increasing,-2.361361119,0.394307377,2,10/1/2002,10/1/2003,Midlands,73.25173375,1001,0.383537413
7,Wood Mill Farm,http://environment.data.gov.uk/hydrology/id/measures/2234c370-5154-4bb5-aae6-b7606120f917_2055GW-gw-dipped-i-mAOD-qualified,,362935,322875,52.802139,-2.551209,Permian Sandstone,Highly productive aquifer,Significant intergranular flow,61.23064041,qualified,402,1.133103097,1.56064041,0.78064041,10/1/1972,10/1/2022,51,44,No trend,0.054069542,0.180093048,1,10/1/1973,10/1/1973,Midlands,74.00813239,1001,0.46240201
8,Wood Mill Farm,http://environment.data.gov.uk/hydrology/id/measures/2234c370-5154-4bb5-aae6-b7606120f917_0445GW-gw-dipped-i-mAOD-qualified,,362675,323225,52.805267,-2.555105,Permian Sandstone,Highly productive aquifer,Significant intergranular flow,65.82038879,qualified,615,2.541331879,3.46038879,0.98038879,10/1/1973,10/1/2021,49,47,No trend,0.283164983,0.118530737,9,10/1/1981,10/1/1989,Midlands,73.29142479,1001,0.383537413
9,Drakelow,,http://environment.data.gov.uk/hydrology/id/measures/94e992cb-3f51-46f8-a7b8-be5368babf90_46654-gw-logged-i-subdaily-mAOD-qualified,423955,320335,52.780061,-1.646296,Triassic Sandstone,Low productivity aquifer,Flow is virtually all through fractures and other discontinuities,54.95383453,qualified,7816,6.673464762,12.5392512,0.672938697,10/1/1999,10/1/2021,23,23,Slow increasing,-37.07791617,0.810297315,18,10/1/2000,10/1/2017,Midlands,1001.230481,501,0.572872895
10,Tollgate,http://environment.data.gov.uk/hydrology/id/measures/db1d776d-2226-4979-8b90-733c0f352d32_441414004-gw-dipped-i-mAOD-qualified,,564245,171712,51.420622,0.360804,Chalk,Highly productive aquifer,Flow is virtually all through fractures and other discontinuities,29.95890617,qualified,457,19.77582958,23.26890617,15.89890617,10/1/1980,10/1/2023,44,44,No trend,1.583064738,0.132646057,10,10/1/1982,10/1/1991,Southern,1628.325082,251,0.394366058
11,Spoondell,http://environment.data.gov.uk/hydrology/id/measures/6aead97c-0040-4e31-889d-01f628faf990-gw-dipped-i-mAOD-qualified,,500937,221009,51.878516,-0.535068,Chalk,Highly productive aquifer,Flow is virtually all through fractures and other discontinuities,171.292572,qualified,419,43.10880112,48.602572,34.372572,10/1/1981,10/1/2023,43,43,Slow decreasing,4.017424242,0.062545762,25,10/1/1981,10/1/2005,Thames,1130.70292,101,0.452253868
12,Old Mill Farm B,http://environment.data.gov.uk/hydrology/id/measures/612c3415-f3fe-4567-87e8-d343cd78fbf0_441320032-gw-dipped-i-mAOD-qualified,,555703,171203,51.418458,0.237832,Lower Greensand,Highly productive aquifer,Flow is virtually all through fractures and other discontinuities,14.39601612,same coordinate,426,1.80379781,3.41601612,0.79601612,10/1/1995,10/1/2022 0:00,28,28,,,,,,,,,,
13,Old Mill Farm T,http://environment.data.gov.uk/hydrology/id/measures/612c3415-f3fe-4567-87e8-d343cd78fbf0_441320033-gw-dipped-i-mAOD-qualified,,555703,171203,51.418458,0.237832,Lower Greensand,Highly productive aquifer,Flow is virtually all through fractures and other discontinuities,14.39601612,same coordinate,404,1.686337902,2.91601612,1.09601612,10/1/1995,10/1/2023 0:00,29,28,,,,,,,,,,
14,North Stoke,http://environment.data.gov.uk/hydrology/id/measures/874af2fb-01ad-49d7-9f19-66ac3f81af32-gw-dipped-i-mAOD-qualified,,504055,111145,50.890425,-0.521948,Chalk,Highly productive aquifer,Flow is virtually all through fractures and other discontinuities,81.01052094,qualified,247,76.15940353,80.38252094,67.66052094,10/1/2001,10/1/2023,23,23,Slow increasing,-4.992424242,0.310392581,19,10/1/2005,10/1/2023,Southern,129.5668351,1001,0.988426741
15,Newlands Corner,,http://environment.data.gov.uk/hydrology/id/measures/8b4ac0c3-2c32-4a99-badc-ffc5f29937a7-gw-logged-i-subdaily-mAOD-qualified,504229,149246,51.232887,-0.50851,Chalk,Highly productive aquifer,Flow is virtually all through fractures and other discontinuities,171.5480652,qualified,3620,87.38007407,89.6621902,82.89760687,10/1/2009,10/1/2022,14,14,Slow decreasing,3.890833302,0.061787509,8,10/1/2009,10/1/2016,Thames,597.6294929,501,0.848143776
16,Grange Farm West Wratting,http://environment.data.gov.uk/hydrology/id/measures/9a6ac583-0119-47dc-8fb5-ceca5bd64701-gw-dipped-i-mAOD-qualified,,559541,251790,52.141359,0.329989,Chalk,Highly productive aquifer,Flow is virtually all through fractures and other discontinuities,94.82769775,qualified,252,30.78626918,34.24769775,26.97769775,10/1/1998,10/1/2023,26,24,No trend,1.104166667,0.128486784,2,10/1/2003,10/1/2004,Anglian,79.5966272,5001,0.074835418
17,Lea Farm,http://environment.data.gov.uk/hydrology/id/measures/dabd21c4-9859-4ff5-9fef-d3c87b599c13-gw-dipped-i-mAOD-qualified,,380705,303245,52.626608,-2.286477,Triassic Sandstone,Low productivity aquifer,Flow is virtually all through fractures and other discontinuities,92.50495148,qualified,547,1.408735758,3.14495148,0.07495148,10/1/1976,10/1/2013,38,38,No trend,-0.431186869,0.017741268,38,10/1/1976,10/1/2013,Midlands,220.6293107,1001,0.355439221
18,Ingleby,http://environment.data.gov.uk/hydrology/id/measures/457093ef-ac0a-491d-811f-64f6463a16a0-gw-dipped-i-mAOD-qualified,,434675,326585,52.835662,-1.486714,Triassic Sandstone,Highly productive aquifer,Significant intergranular flow,74.46276855,qualified,109,27.22744745,29.49276855,23.44276855,10/1/2012,10/1/2023,12,11,Slow decreasing,44.1125,0.986199413,7,10/1/2012,10/1/2018,Midlands,340.5926235,1001,0.467431067
19,Thames Head,http://environment.data.gov.uk/hydrology/id/measures/09a754a3-62c0-4831-abe0-483948ea127f-gw-dipped-i-mAOD-qualified,,398635,198815,51.688083,-2.021137,Oolites,Highly productive aquifer,Flow is virtually all through fractures and other discontinuities,108.0771637,qualified,709,8.611084716,13.4971637,3.4071637,10/1/1961,10/1/2023,63,62,No trend,-1.263157895,0.177653782,63,10/1/1961,10/1/2023,Thames,191.3660449,251,0.685132479
20,Moss Edge Farm,,http://environment.data.gov.uk/hydrology/id/measures/b9140362-747d-4350-b55f-3b741ec6d8ab-gw-logged-i-subdaily-mAOD-qualified,343971,449275,53.936531,-2.854924,Triassic Sandstone,Highly productive aquifer,Significant intergranular flow,5.284296989,qualified,10050,1.315774076,3.180963656,0.294296989,10/1/1965,10/1/2022,58,58,No trend,0.009365969,0.030053245,56,10/1/1965,10/1/2020,North West,107.7348115,1,0.153373925
21,East Leake,http://environment.data.gov.uk/hydrology/id/measures/3a9317a1-7eaa-4539-9bdd-8a187ff17c0d-gw-dipped-i-mAOD-qualified,,455875,328555,52.851593,-1.171711,Triassic Sandstone,Low productivity aquifer,Flow is virtually all through fractures and other discontinuities,63.97527313,qualified,592,39.05375286,43.33527313,33.44527313,10/1/1978,10/1/2023,46,41,Slow increasing,-13.30568182,0.739688249,46,10/1/1978,10/1/2023,Midlands,248.4182633,1001,0.040074906
22,Nuttalls Farm,,http://environment.data.gov.uk/hydrology/id/measures/1b7e2cfb-c038-49bf-b380-6c0d7ec5bb8b-gw-logged-i-subdaily-mAOD-qualified,406655,301115,52.607767,-1.903152,Unallocated to aquifers,Highly productive aquifer,Significant intergranular flow,140.7547455,no enough data,no enough data,,,,,,,,,,,,,,,,,
23,Roman Road,,http://environment.data.gov.uk/hydrology/id/measures/1cdd6e48-7bcb-4f32-b8a8-3500a8a352b0-gw-logged-i-subdaily-mAOD-qualified,346853,242483,52.078135,-2.776907,Unallocated to aquifers,Low productivity aquifer,Flow is virtually all through fractures and other discontinuities,67.17160034,qualified,10817,6.53921466,10.32560034,1.641954507,10/1/1972,10/1/2023,52,52,Slow increasing,-6.058174576,0.621017401,11,10/1/1997,10/1/2007,Midlands,420.1542031,501,0.321514311
24,Hyde Cottages Risby,http://environment.data.gov.uk/hydrology/id/measures/ea15dfcd-00b7-41d9-91b6-c4fc325d9cb8-gw-dipped-i-mAOD-qualified,,581533,266142,52.263468,0.658696,Lower Greensand,Highly productive aquifer,Flow is virtually all through fractures and other discontinuities,65.16894531,qualified,231,37.1502873,43.08894531,33.41894531,10/1/1998,10/1/2023,26,23,Slow decreasing,8.1125,0.195980571,16,10/1/2000,10/1/2015,Anglian,403.1833645,5001,0.353233755
25,North Plantation,http://environment.data.gov.uk/hydrology/id/measures/1495a14c-d5d6-40fc-8af5-bde4773e781d-gw-dipped-i-mAOD-qualified,,578560,259851,52.207941,0.611861,Lower Greensand,Highly productive aquifer,Flow is virtually all through fractures and other discontinuities,106.7295685,qualified,213,41.10581263,41.7495685,40.4695685,10/1/1998,10/1/2023,26,23,No trend,-1.902631579,0.889733809,8,10/1/1998,10/1/2005,Anglian,62.53911903,5001,0.072286603
26,Warnford Estate,http://environment.data.gov.uk/hydrology/id/measures/586fd8ee-afc0-46e1-9eda-cea9725c0ea1-gw-dipped-i-mAOD-qualified,,462135,122295,50.9967,-1.115951,Chalk,Highly productive aquifer,Flow is virtually all through fractures and other discontinuities,68.60781097,qualified,123,0.942445116,1.22781097,0.60781097,10/1/1991,10/1/2023,33,21,No trend,-0.985791091,0.524456204,33,10/1/1991,10/1/2023,Southern,77.16818355,101,1.064231102
27,Kemps Drift,http://environment.data.gov.uk/hydrology/id/measures/9610f73b-f3af-4ede-b4e7-ec615e7ab5a2-gw-dipped-i-mAOD-qualified,,448933,465244,54.080785,-1.253548,Triassic Sandstone,Highly productive aquifer,Significant intergranular flow,11.51841831,qualified,348,0.241346471,1.06841831,-0.18158169,10/1/1991,10/1/2023,33,33,No trend,-0.968398268,0.844403078,9,10/1/1991,10/1/1999,North East,54.82825985,251,0.301571363
28,Hungerdowns Farm,http://environment.data.gov.uk/hydrology/id/measures/ea3a67b3-3b5f-4ad0-ab68-5e45b7d288a2-gw-dipped-i-mAOD-qualified,,607216,229729,51.927485,1.012393,Chalk,Rocks with essentially no groundwater,,36.98066711,qualified,507,4.588073422,5.91066711,2.63066711,10/1/1974,10/1/2023,50,49,No trend,-0.622530864,0.087244524,28,10/1/1996,10/1/2023,Anglian,146.1015437,1001,0.172868218
29,Caldecote Farm,http://environment.data.gov.uk/hydrology/id/measures/83f8884f-6268-46fa-aca9-2ccc0155518a-gw-dipped-i-mAOD-qualified,,574796,303460,52.600799,0.57959,Chalk,Highly productive aquifer,Flow is virtually all through fractures and other discontinuities,9.904882431,qualified,107,2.567779627,3.134882431,1.604882431,10/1/1995,10/1/2023,29,23,No trend,-0.224358974,0.468077012,1,10/1/1997,10/1/1997,Anglian,33.42304313,5001,0.293396989
30,Jackaments Bottom,http://environment.data.gov.uk/hydrology/id/measures/961c43fb-11e5-4b9a-8b73-c99d72146663-gw-dipped-i-mAOD-qualified,http://environment.data.gov.uk/hydrology/id/measures/961c43fb-11e5-4b9a-8b73-c99d72146663-gw-logged-i-subdaily-mAOD-qualified,396769,197268,51.674166,-2.048116,Oolites,Highly productive aquifer,Flow is virtually all through fractures and other discontinuities,105.9273071,qualified,12224,5.478451094,13.5773071,-1.0726929,10/1/1973,10/1/2023,51,51,No trend,1.776094293,0.022230378,34,10/1/1986,10/1/2019,Thames,118.5838186,251,0.724804137
31,Ponyfield,http://environment.data.gov.uk/hydrology/id/measures/c80a1d8e-8c0d-4547-85c5-dc70147c2cd6-gw-dipped-i-mAOD-qualified,,466175,397145,53.466884,-1.004626,Triassic Sandstone,Highly productive aquifer,Significant intergranular flow,10.55609322,qualified,523,14.21460182,16.72609322,12.51609322,10/1/1976,10/1/2023,48,48,Slow increasing,-3.513047138,0.481143748,25,10/1/1997,10/1/2021,Midlands,310.8654573,1001,0.412071652
32,Lydeards Hill,http://environment.data.gov.uk/hydrology/id/measures/09ce1fe7-a39d-444b-9c7e-51a841e3d1f3-gw-dipped-i-mAOD-qualified,,317966,134021,51.099598,-3.172945,Unallocated to aquifers,Low productivity aquifer,Flow is virtually all through fractures and other discontinuities,348.3624268,qualified,321,25.27685048,34.9024268,16.3024268,10/1/1991,10/1/2023,33,32,Slow decreasing,16.40530646,0.594221791,21,10/1/1992,10/1/2012,South West,92.3557275,51,0.700069081
33,Sutton Top Field Spinney,http://environment.data.gov.uk/hydrology/id/measures/ff0dd675-9937-42a2-a75c-5df6e369004b_3_032-gw-dipped-i-mAOD-qualified,,509075,300045,52.587267,-0.391421,Oolites,Highly productive aquifer,Flow is virtually all through fractures and other discontinuities,19.1858139,qualified,266,3.883558261,4.9358139,0.8458139,10/1/1998,10/1/2023,26,26,Slow increasing,-2.524104683,0.628812485,8,10/1/2016,10/1/2023,Anglian,127.6229654,101,0.09949908
34,Sutton Heath Road,http://environment.data.gov.uk/hydrology/id/measures/ff0dd675-9937-42a2-a75c-5df6e369004b_3_034-gw-dipped-i-mAOD-qualified,,509035,300235,52.588982,-0.391949,Oolites,Highly productive aquifer,Flow is virtually all through fractures and other discontinuities,22.71084213,qualified,263,3.860804107,4.76084213,2.50084213,10/1/1998,10/1/2023,26,26,No trend,0.263020833,0.101902159,2,10/1/2018,10/1/2019,Anglian,128.0046865,101,0.09949908
35,Woore,http://environment.data.gov.uk/hydrology/id/measures/149446b9-58b0-44d5-afa5-c6f7b8c9c873-gw-dipped-i-mAOD-qualified,,373135,342345,52.977763,-2.401535,Triassic Sandstone,Low productivity aquifer,Flow is virtually all through fractures and other discontinuities,148.4021606,qualified,366,12.04669612,12.7421606,11.2021606,10/1/1981,10/1/2022,42,40,No trend,-0.082211538,0.030557745,1,10/1/2019,10/1/2019,Midlands,98.39816639,1001,0.77883711
36,Hurdcott,,http://environment.data.gov.uk/hydrology/id/measures/953dc0e6-a23e-49a9-a7b6-1e33675b470d-gw-logged-i-subdaily-mAOD-qualified,416690,133770,51.102988,-1.762997,Chalk,Highly productive aquifer,Flow is virtually all through fractures and other discontinuities,55.37200928,qualified,4828,1.632006467,2.250772167,0.34919678,10/1/2007,10/1/2022,16,16,No trend,-0.207883241,0.066941487,6,10/1/2007,10/1/2012,South West,414.8000814,51,0.823832288
37,Hursley,http://environment.data.gov.uk/hydrology/id/measures/bcd03a7a-58ba-4eb8-a6e8-cf3ba5f18628-gw-dipped-i-mAOD-qualified,http://environment.data.gov.uk/hydrology/id/measures/bcd03a7a-58ba-4eb8-a6e8-cf3ba5f18628-gw-logged-i-subdaily-mAOD-qualified,442828,124850,51.021431,-1.390752,Chalk,Highly productive aquifer,Flow is virtually all through fractures and other discontinuities,46.95320892,qualified,7324,11.02740771,16.46275059,1.13445892,10/1/1986,10/1/2023,38,36,Slow increasing,-3.52834856,0.019923973,36,10/1/1988,10/1/2023,Southern,558.2721312,1,0.114923068
38,Blowing Stone Cottage,http://environment.data.gov.uk/hydrology/id/measures/614b0d21-b4c6-4640-8814-7d200002debb-gw-dipped-i-mAOD-qualified,,432320,187560,51.585969,-1.534902,Lower Greensand,Moderately productive aquifer,Significant intergranular flow,127.7728119,qualified,1475,14.3588119,18.3628119,6.5128119,10/1/1965,10/1/2023,59,52,No trend,1.069666445,0.038344677,2,10/1/1982,10/1/1983,Thames,78.76419301,51,0.439737228
39,Mill Road,http://environment.data.gov.uk/hydrology/id/measures/852b7941-5861-43b3-be69-c7d827d8e016-gw-dipped-i-mAOD-qualified,,565789,308887,52.652362,0.44945,Oolites,Rocks with essentially no groundwater,,25.75464821,qualified,246,7.633794551,8.30464821,6.72464821,10/1/1998,10/1/2023,26,24,No trend,1.10124269,0.290842398,1,10/1/1999,10/1/1999,Anglian,86.16199832,1001,0.437193355
40,Water Acre,http://environment.data.gov.uk/hydrology/id/measures/ead414df-153e-495c-938a-96a85655809a-gw-dipped-i-mAOD-qualified,http://environment.data.gov.uk/hydrology/id/measures/ead414df-153e-495c-938a-96a85655809a-gw-logged-i-subdaily-mAOD-qualified,425845,177785,51.498413,-1.62907,Chalk,Highly productive aquifer,Flow is virtually all through fractures and other discontinuities,145.401825,qualified,9202,11.46941789,24.341825,0.244408333,10/1/1975,10/1/2023,49,49,No trend,-0.266155434,0.010339308,49,10/1/1975,10/1/2023,Thames,63.91252609,51,0.83865331
41,Upavon Deep,http://environment.data.gov.uk/hydrology/id/measures/0239b742-9636-4092-8ecd-485dbb4bc7d3_90115405-gw-dipped-i-mAOD-qualified,,413670,155000,51.293964,-1.805328,Chalk,Highly productive aquifer,Flow is virtually all through fractures and other discontinuities,91.65601349,qualified,227,0.919581772,2.48601349,-0.83398651,10/1/2002,10/1/2023,22,22,No trend,-0.625344353,0.057227614,14,10/1/2010,10/1/2023,South West,38.70026976,51,0.868881188
42,Upavaon Shallow,http://environment.data.gov.uk/hydrology/id/measures/0239b742-9636-4092-8ecd-485dbb4bc7d3_90115406-gw-dipped-i-mAOD-qualified,,413650,155000,51.293964,-1.805615,Chalk,Highly productive aquifer,Flow is virtually all through fractures and other discontinuities,91.69874573,qualified,228,1.218219414,1.97874573,0.12874573,10/1/2002,10/1/2023,22,22,No trend,-1.141414141,0.285835154,6,10/1/2018,10/1/2023,South West,38.68250646,51,0.868881188
43,Sherburn Quarry 3,http://environment.data.gov.uk/hydrology/id/measures/5bdcd238-08e1-4458-87a0-2fbb89005cd5-gw-dipped-i-mAOD-qualified,,448976,432699,53.7883,-1.258096,Magnesian Limestone,Highly productive aquifer,Flow is virtually all through fractures and other discontinuities,32.67578125,qualified,486,15.49550759,15.86578125,14.74778125,10/1/1981,10/1/2023,43,43,No trend,-0.071829405,0.068302839,18,10/1/2006,10/1/2023,North East,209.830765,501,0.314969079
44,Berwick Bassett,http://environment.data.gov.uk/hydrology/id/measures/5296be5a-dc82-40ba-8c58-71e01f485298-gw-dipped-i-mAOD-qualified,http://environment.data.gov.uk/hydrology/id/measures/5296be5a-dc82-40ba-8c58-71e01f485298-gw-logged-i-subdaily-mAOD-qualified,410831,173495,51.460324,-1.845486,Chalk,Highly productive aquifer,Flow is virtually all through fractures and other discontinuities,169.6733551,qualified,8479,11.89865862,22.1433551,2.6391051,10/1/1974,10/1/2022,49,49,No trend,0.089795733,0.008990885,26,10/1/1996,10/1/2021,Thames,55.30039445,51,0.848423985
45,Amotherby,http://environment.data.gov.uk/hydrology/id/measures/b34aee74-6a3a-4543-a0b6-9a2250cdf38a-gw-dipped-i-mAOD-qualified,,475345,473167,54.148797,-0.847945,Triassic Sandstone,Moderately productive aquifer,Flow is virtually all through fractures and other discontinuities,45.41613007,qualified,470,28.04200241,30.40613007,23.10613007,10/1/1982,10/1/2023,42,41,No trend,-1.304229798,0.156456664,29,10/1/1995,10/1/2023,North East,132.3997595,751,0.49661599
46,Brunstead Hall,,http://environment.data.gov.uk/hydrology/id/measures/001f4847-e0d9-4431-a25d-b31c7c5119db-gw-logged-i-subdaily-mAOD-qualified,637010,326810,52.786771,1.513409,Chalk,Moderately productive aquifer,Significant intergranular flow,7.726863384,qualified,4418,6.128383815,7.006863384,5.235780051,10/1/1952,10/1/2023,72,67,No trend,-0.049242424,0.062934389,21,10/1/1993,10/1/2013,Anglian,99.32532392,1001,0.337616899
47,Moreton Lodge,,http://environment.data.gov.uk/hydrology/id/measures/e3e2735a-930f-48f1-8126-9f41a7bd7701-gw-logged-i-subdaily-mAOD-qualified,353845,323455,52.806649,-2.686111,Permian Sandstone,Highly productive aquifer,Significant intergranular flow,109.8624115,qualified,7806,41.25735991,42.2345365,40.16511983,10/1/1998,10/1/2023,26,26,No trend,-0.485138962,0.007062068,24,10/1/1998,10/1/2021,Midlands,58.38724439,1001,0.389028149
48,Bowbridge,http://environment.data.gov.uk/hydrology/id/measures/d929f1d2-7ae8-41fe-9a29-ced07436b1f0-gw-dipped-i-mAOD-qualified,http://environment.data.gov.uk/hydrology/id/measures/d929f1d2-7ae8-41fe-9a29-ced07436b1f0-gw-logged-i-subdaily-mAOD-qualified,512480,208960,51.768021,-0.371361,Chalk,Highly productive aquifer,Flow is virtually all through fractures and other discontinuities,84.69039917,qualified,5734,2.098267071,2.94039917,1.294690837,10/1/1992,10/1/2023,32,31,No trend,-1.268148437,0.191340848,27,10/1/1997,10/1/2023,Thames,1140.12067,101,0.598277117
49,Bessacar,http://environment.data.gov.uk/hydrology/id/measures/81c80f86-c4ad-4bdf-b27c-f32f37f6bf87-gw-dipped-i-mAOD-qualified,,459345,401015,53.502478,-1.106766,Triassic Sandstone,Highly productive aquifer,Significant intergranular flow,3.566347599,qualified,395,0.78662608,1.526347599,0.096347599,10/1/1980,10/1/2023,44,43,No trend,-1.399038462,0.729489878,38,10/1/1986,10/1/2023,Midlands,1408.341236,2501,0.129494575
50,Chalton,http://environment.data.gov.uk/hydrology/id/measures/25fd56b7-6e65-482c-90b1-a69902d88d48-gw-dipped-i-mAOD-qualified,http://environment.data.gov.uk/hydrology/id/measures/25fd56b7-6e65-482c-90b1-a69902d88d48-gw-logged-i-subdaily-mAOD-qualified,473130,116050,50.939263,-0.960553,Chalk,Highly productive aquifer,Flow is virtually all through fractures and other discontinuities,94.72647858,qualified,5710,51.61316678,58.92814525,31.72147858,10/1/2003,10/1/2023,21,19,Slow increasing,-14.1472954,0.071614913,21,10/1/2003,10/1/2023,Southern,253.5907659,101,1.239965349
51,Old Hall,http://environment.data.gov.uk/hydrology/id/measures/d45d95d5-847b-410e-9618-69860310a1c3-gw-dipped-i-mAOD-qualified,,617582,336920,52.885684,1.23255,Crag,Moderately productive aquifer,Significant intergranular flow,40.27621078,qualified,360,1.217266336,2.94621078,-0.14378922,10/1/1984,10/1/2023,40,36,No trend,-0.213716108,0.102152086,2,10/1/1997,10/1/1998,Anglian,68.87839308,1001,0.483986857
52,Main Road Croxton,http://environment.data.gov.uk/hydrology/id/measures/f300d0dd-d3be-49ef-af28-3f5af32cf946-gw-dipped-i-mAOD-qualified,,587348,286367,52.443135,0.755079,Chalk,Highly productive aquifer,Flow is virtually all through fractures and other discontinuities,51.86093903,qualified,251,39.39492309,41.96093903,35.53093903,10/1/1998,10/1/2023,26,23,Slow decreasing,5.55,0.193921842,2,10/1/2003,10/1/2004,Anglian,310.3130271,5001,0.308023842
53,Rats Pen Lane Chalk,http://environment.data.gov.uk/hydrology/id/measures/a4b12b29-58c5-4b41-b67d-9bdb60dcf0e5-gw-dipped-i-mAOD-qualified,,539445,382465,53.320738,0.092009,Chalk,Highly productive aquifer,Flow is virtually all through fractures and other discontinuities,16.02823448,qualified,380,8.294866059,9.76823448,7.25823448,10/1/1981,10/1/2023,43,36,No trend,0.819249784,0.117423543,30,10/1/1981,10/1/2010,Anglian,44.50567395,751,0.318412965
54,Myddlewood,http://environment.data.gov.uk/hydrology/id/measures/2d265b93-730b-4da9-9351-2e61781fdd18-gw-dipped-i-mAOD-qualified,,346045,323415,52.805564,-2.8018,Triassic Sandstone,Highly productive aquifer,Significant intergranular flow,99.89665985,qualified,522,38.11620966,39.59665985,36.59665985,10/1/1975,10/1/2022,48,46,Sudden downward change,3.789044289,0.8937178,9,10/1/1986,10/1/1994,Midlands,54.07280362,1001,0.370850855
55,Slough Farm,http://environment.data.gov.uk/hydrology/id/measures/d432e07c-df09-4c29-987a-cefe16db7154-gw-dipped-i-mAOD-qualified,,604921,227489,51.908222,0.977731,Chalk,Rocks with essentially no groundwater,,35.01277542,qualified,213,32.5662496,37.33277542,30.63277542,10/1/1972,10/1/2023,52,34,Slow increasing,-4.044117647,0.570677392,33,10/1/1972,10/1/2004,Anglian,750.4694961,1001,0.200858233
56,Marlston Farm,http://environment.data.gov.uk/hydrology/id/measures/98e79ed7-ff97-4fdc-b51e-fede9c58d3bd-gw-dipped-i-mAOD-qualified,http://environment.data.gov.uk/hydrology/id/measures/98e79ed7-ff97-4fdc-b51e-fede9c58d3bd-gw-logged-i-subdaily-mAOD-qualified,453385,171915,51.443713,-1.233251,Chalk,Highly productive aquifer,Flow is virtually all through fractures and other discontinuities,75.01563263,qualified,9169,5.424210986,8.15563263,2.712174297,10/1/1973,10/1/2023,51,50,No trend,-0.947080879,0.077433045,51,10/1/1973,10/1/2023,Thames,285.8142319,51,0.743989257
57,Royalty Farm,http://environment.data.gov.uk/hydrology/id/measures/f6487e6c-c35b-4fb0-851f-37e13d945bde-gw-dipped-i-mAOD-qualified,http://environment.data.gov.uk/hydrology/id/measures/f6487e6c-c35b-4fb0-851f-37e13d945bde-gw-logged-i-subdaily-mAOD-qualified,393640,647458,55.720481,-2.102801,Fell Sandstone& Border Group,Moderately productive aquifer,Significant intergranular flow,56.28503799,qualified,4432,11.98939962,13.69503799,10.23349632,10/1/1990,10/1/2023,34,34,Slow increasing,-3.251967773,0.36679232,21,10/1/1995,10/1/2015,North East,32.94452074,1,0.387944414
58,Wested Farm,http://environment.data.gov.uk/hydrology/id/measures/9e1cff99-fda7-4e21-b8b7-74a386a20bd2-gw-dipped-i-mAOD-qualified,,551843,166864,51.380518,0.180509,Lower Greensand,Highly productive aquifer,Flow is virtually all through fractures and other discontinuities,99.65593719,qualified,1798,57.09161572,58.85593719,54.84593719,10/1/1962,10/1/2023,62,62,No trend,-0.197554348,0.004565248,61,10/1/1962,10/1/2022,Southern,790.3823844,1,0.664497113
59,Trowley Bottom Farm,http://environment.data.gov.uk/hydrology/id/measures/7af4d245-cf17-455e-bfdc-6c5fcd42df1b-gw-dipped-i-mAOD-qualified,,507710,213850,51.812908,-0.438941,Chalk,Highly productive aquifer,Flow is virtually all through fractures and other discontinuities,116.9633026,qualified,494,10.87224997,18.9533026,5.0333026,10/1/1974,10/1/2023,50,49,Slow increasing,-3.557420799,0.1629502,10,10/1/1991,10/1/2000,Thames,371.4616913,101,0.617164812
60,Glynch 3,,http://environment.data.gov.uk/hydrology/id/measures/327c5a5d-b990-4dc3-9c45-e45844f7e63b_26348-gw-logged-i-subdaily-mAOD-qualified,374319,233620,52.000414,-2.375479,Triassic Sandstone,Highly productive aquifer,Significant intergranular flow,52.7105217,qualified,2591,19.55294024,21.56718837,16.8580217,10/1/2013,10/1/2022,10,10,Sudden downward change,41.88710757,0.953304623,2,10/1/2016,10/1/2017,Midlands,106.6757854,101,0.469846488
61,Pipe Green,http://environment.data.gov.uk/hydrology/id/measures/73ce392f-0891-4233-b9c0-98ecfaf1e557-gw-dipped-i-mAOD-qualified,,410622,309643,52.684369,-1.844301,Triassic Sandstone,Highly productive aquifer,Significant intergranular flow,82.61011505,qualified,348,1.561063326,3.13011505,0.74011505,10/1/1991,10/1/2022,32,32,Sudden upward change,-3.429292929,0.854617268,4,10/1/1997,10/1/2000,Midlands,634.2324252,251,0.434571346
62,Itteringham 2,http://environment.data.gov.uk/hydrology/id/measures/76e6589c-c776-40f0-bac1-6e962d336256-gw-dipped-i-mAOD-qualified,,613063,332152,52.844696,1.16238,Chalk,Highly productive aquifer,Flow is virtually all through fractures and other discontinuities,46.5690155,qualified,318,15.58168846,16.6390155,14.7090155,10/1/1984,10/1/2023,40,32,No trend,0.055185284,0.102375337,17,10/1/1986,10/1/2002,Anglian,65.62562865,1001,0.595256729
63,Winchester Guildhall,http://environment.data.gov.uk/hydrology/id/measures/90fd2961-bed5-4105-90fd-96349115fcb6-gw-dipped-i-mAOD-qualified,,448505,129295,51.060948,-1.309225,Chalk,Highly productive aquifer,Flow is virtually all through fractures and other discontinuities,36.06915283,qualified,274,2.666780567,3.41915283,1.28915283,10/1/2000,10/1/2023,24,24,No trend,-0.43452381,0.082706555,20,10/1/2004,10/1/2023,Southern,577.4225931,1,0.795229832
64,Hambleton,http://environment.data.gov.uk/hydrology/id/measures/8ac175df-5d44-40c4-af14-5a7c46fdeaca-gw-dipped-i-mAOD-qualified,http://environment.data.gov.uk/hydrology/id/measures/8ac175df-5d44-40c4-af14-5a7c46fdeaca-gw-logged-i-subdaily-mAOD-qualified,456331,431418,53.776045,-1.146705,Triassic Sandstone,Highly productive aquifer,Significant intergranular flow,7.065656185,qualified,11600,2.376575478,3.805656185,1.044031185,10/1/1988,10/1/2023,36,36,Slow increasing,-5.181430132,0.850853091,17,10/1/1995,10/1/2011,North East,249.1035911,501,0.248794699
65,Cocker Bridge,http://environment.data.gov.uk/hydrology/id/measures/82562637-e59a-4e38-91e7-020a222caef2-gw-dipped-i-mAOD-qualified,,345255,451355,53.955361,-2.835742,Triassic Sandstone,Highly productive aquifer,Significant intergranular flow,5.025273323,qualified,414,0.562060763,1.675273323,-0.544726677,10/1/1965,10/1/2022,58,44,No trend,-0.328178419,0.038163922,58,10/1/1965,10/1/2022,North West,91.4337219,1,1.377033017
66,Lynstead,http://environment.data.gov.uk/hydrology/id/measures/49b43b86-1f00-4df0-b7e0-d16e1e0aab6a-gw-dipped-i-mAOD-qualified,,594652,160394,51.309359,0.791414,Chalk,Highly productive aquifer,Flow is virtually all through fractures and other discontinuities,37.01755905,qualified,244,18.40896479,21.01755905,14.22755905,10/1/1999,10/1/2022,24,24,No trend,-0.981881313,0.07389423,2,10/1/2012,10/1/2013,Southern,240.0360325,251,0.617036654
67,Cundall Sandstone,http://environment.data.gov.uk/hydrology/id/measures/4a854eb5-c5c0-414c-8715-cebd4085ca89-gw-dipped-i-mAOD-qualified,http://environment.data.gov.uk/hydrology/id/measures/4a854eb5-c5c0-414c-8715-cebd4085ca89-gw-logged-i-subdaily-mAOD-qualified,442090,472497,54.14657,-1.357128,Triassic Sandstone,Low productivity aquifer,Flow is virtually all through fractures and other discontinuities,18.49160576,qualified,11480,2.130965575,2.939939093,1.252772427,10/1/1986,10/1/2023,38,38,No trend,-1.402883743,0.463507951,17,10/1/1996,10/1/2012,North East,65.31352166,251,0.299044013
68,Isleham Fen,http://environment.data.gov.uk/hydrology/id/measures/3402a000-342b-4a12-aecb-3f11cde12d70-gw-dipped-i-mAOD-qualified,,562809,279084,52.385574,0.390857,Lower Greensand,Rocks with essentially no groundwater,,0.668164074,no enough data,no enough data,,,,,,,,,,,,,,,,,
69,Whitworth Hall,http://environment.data.gov.uk/hydrology/id/measures/72a62131-cf35-4f65-b5f7-a9fb3d043612-gw-dipped-i-mAOD-qualified,http://environment.data.gov.uk/hydrology/id/measures/72a62131-cf35-4f65-b5f7-a9fb3d043612-gw-logged-i-subdaily-mAOD-qualified,423711,535011,54.709543,-1.633509,Unallocated to aquifers,Moderately productive aquifer,Flow is virtually all through fractures and other discontinuities,89.8429184,qualified,6789,37.62520878,53.37750173,33.8829184,10/1/2000,10/1/2023,24,23,Sudden upward change,-25.43196169,0.978037722,8,10/1/2000,10/1/2007,North East,554.6150746,1,0.310853357
70,Painsbrook,,http://environment.data.gov.uk/hydrology/id/measures/7b8dee44-4fc6-4218-96b5-f9b966335190-gw-logged-i-subdaily-mAOD-qualified,353185,320925,52.783851,-2.695538,Triassic Sandstone,Highly productive aquifer,Significant intergranular flow,72.84960938,qualified,3095,5.617563885,7.98460938,4.50460938,10/1/2008,10/1/2022,15,10,Slow decreasing,3.002779542,0.027274709,15,10/1/2008,10/1/2022,Midlands,126.3984488,251,0.54604387
71,Bow Wow,http://environment.data.gov.uk/hydrology/id/measures/ba4127b8-b925-42df-b859-0932394be0bc-gw-dipped-i-mAOD-qualified,http://environment.data.gov.uk/hydrology/id/measures/ba4127b8-b925-42df-b859-0932394be0bc-gw-logged-i-subdaily-mAOD-qualified,405535,197635,51.67745,-1.921342,Oolites,Highly productive aquifer,Flow is virtually all through fractures and other discontinuities,89.21156311,qualified,1134,0.964645369,1.90156311,0.489854777,10/1/2003,10/1/2023,21,19,No trend,-0.847222222,0.387384358,1,10/1/2018,10/1/2018,Thames,160.3332701,51,0.588019071
72,Dambridge Drift,,http://environment.data.gov.uk/hydrology/id/measures/1c578eb1-9f07-448e-8aa4-5e7ce09c392e_644610007-gw-logged-i-subdaily-mAOD-qualified,625179,157488,51.272022,1.226877,Oolites,Highly productive aquifer,Flow is virtually all through fractures and other discontinuities,4.860437393,same coordinate,6009,2.012457008,2.78335406,1.051187393,10/1/2005,10/1/2022 0:00,18,18,,,,,,,,,,
73,Dambridge Chalk,,http://environment.data.gov.uk/hydrology/id/measures/1c578eb1-9f07-448e-8aa4-5e7ce09c392e_644610006-gw-logged-i-subdaily-mAOD-qualified,625179,157488,51.272022,1.226877,Oolites,Highly productive aquifer,Flow is virtually all through fractures and other discontinuities,4.860437393,same coordinate,5926,3.03043249,4.019770726,1.972520726,10/1/2005,10/1/2022 0:00,18,18,,,,,,,,,,
74,Aughton Cliffs Farm,http://environment.data.gov.uk/hydrology/id/measures/2c456f7e-37b7-45cd-bf6c-a103bd12ccb2-gw-dipped-i-mAOD-qualified,,338185,409275,53.5764,-2.935024,Triassic Sandstone,Highly productive aquifer,Significant intergranular flow,19.20391846,qualified,119,10.19190165,24.05391846,0.96391846,10/1/1983,10/1/2022,40,33,Slow increasing,-65.92509775,0.993185315,28,10/1/1985,10/1/2012,North West,435.2414146,101,0.349516511
75,Pipstile Farm Uphampton,http://environment.data.gov.uk/hydrology/id/measures/9adbd1d5-96aa-4eb6-b578-b9e4de87aee7-gw-dipped-i-mAOD-qualified,,383541,264701,52.280196,-2.242666,Triassic Sandstone,Highly productive aquifer,Significant intergranular flow,66.90311432,qualified,697,5.15060356,7.68311432,2.11311432,10/1/1973,10/1/2022,50,49,No trend,-0.245238095,0.011007121,40,10/1/1974,10/1/2013,Midlands,125.1209151,1001,0.413562078
76,Challenge Farm,http://environment.data.gov.uk/hydrology/id/measures/196f85be-141a-411b-a59b-f6723ca0e889-gw-dipped-i-mAOD-qualified,http://environment.data.gov.uk/hydrology/id/measures/196f85be-141a-411b-a59b-f6723ca0e889-gw-logged-i-subdaily-mAOD-qualified,580808,160497,51.314848,0.593064,Chalk,Highly productive aquifer,Flow is virtually all through fractures and other discontinuities,162.7789154,qualified,3483,93.52625037,95.19724873,91.1589154,10/1/1984,10/1/2022,39,36,No trend,0.831813939,0.023083595,39,10/1/1984,10/1/2022,Southern,667.5078114,251,0.689420957
77,Frome,http://environment.data.gov.uk/hydrology/id/measures/6857fd53-b4fa-4871-8a02-19a32297d594-gw-dipped-i-mAOD-qualified,,377287,149764,51.246587,-2.326782,Unallocated to aquifers,Highly productive aquifer,Flow is virtually all through fractures and other discontinuities,60.13240814,qualified,829,4.285805808,6.13240814,2.00240814,10/1/1974,10/1/2023,50,49,No trend,0.123722594,0.007353992,14,10/1/2010,10/1/2023,South West,403.5952194,51,1.035189686
78,Shortheath Pond,http://environment.data.gov.uk/hydrology/id/measures/ace4c039-beca-4a57-823b-8520c579c504-gw-dipped-i-mAOD-qualified,http://environment.data.gov.uk/hydrology/id/measures/ace4c039-beca-4a57-823b-8520c579c504-gw-logged-i-subdaily-mAOD-qualified,477560,136820,51.125417,-0.893077,Lower Greensand,Highly productive aquifer,Significant intergranular flow,74.02702332,qualified,6446,0.643301746,1.21902332,-0.378935013,10/1/2001,10/1/2023,23,22,No trend,-1.02731,0.99416207,3,10/1/2017,10/1/2019,Thames,265.0426221,501,0.855006121
79,Hornsea,http://environment.data.gov.uk/hydrology/id/measures/220de642-8e8f-49a8-8c7f-91730d87444d-gw-dipped-i-mAOD-qualified,,518302,448799,53.921812,-0.200043,Chalk,Highly productive aquifer,Flow is virtually all through fractures and other discontinuities,19.15652275,qualified,490,2.621114587,5.72652275,0.18652275,10/1/1978,10/1/2023,46,45,No trend,-1.364171891,0.251006571,2,10/1/2005,10/1/2006,North East,105.0961988,51,0.324083567
80,Crudwell,http://environment.data.gov.uk/hydrology/id/measures/a8c57c07-a2de-4dc9-88c5-953b3c176cb7-gw-dipped-i-mAOD-qualified,,395655,192785,51.633851,-2.064169,Oolites,Highly productive aquifer,Flow is virtually all through fractures and other discontinuities,95.53489685,qualified,537,8.713407092,24.16489685,1.70489685,10/1/1982,10/1/2023,42,42,Slow increasing,-2.650520833,0.049774306,29,10/1/1995,10/1/2023,Thames,116.6591895,251,0.083382795
81,Wrelton Paddock,http://environment.data.gov.uk/hydrology/id/measures/f4f9e29a-67e5-43a6-a9dc-e9fc88ef73a4-gw-dipped-i-mAOD-qualified,,476580,485934,54.263332,-0.825793,Triassic Sandstone,Moderately productive aquifer,Flow is virtually all through fractures and other discontinuities,41.52085114,qualified,454,11.48296568,13.85085114,6.85085114,10/1/1982,10/1/2023,42,41,Slow increasing,-2.856609195,0.215167581,33,10/1/1991,10/1/2023,North East,29.48833785,751,0.876908037
82,Black Hall Farm,http://environment.data.gov.uk/hydrology/id/measures/f56bcdea-cec6-445f-858e-7eb3e28c13e1-gw-dipped-i-mAOD-qualified,,427625,287725,52.48674,-1.594605,Unallocated to aquifers,Moderately productive aquifer,Flow is virtually all through fractures and other discontinuities,118.1890106,qualified,208,12.45331348,14.4790106,10.2190106,10/1/2003,10/1/2022,20,20,No trend,-0.425,0.507765755,2,10/1/2006,10/1/2007,Midlands,178.8040171,501,0.136122343
83,Cockley Cley Copse,http://environment.data.gov.uk/hydrology/id/measures/53aad76b-6d76-43b2-bfe5-23751dbc87d0-gw-dipped-i-mAOD-qualified,,579672,303892,52.60309,0.65174,Chalk,Highly productive aquifer,Flow is virtually all through fractures and other discontinuities,34.00589752,qualified,103,13.11914995,14.88589752,11.93089752,10/1/1995,10/1/2023,29,23,No trend,-0.75,0.149769655,29,10/1/1995,10/1/2023,Anglian,61.14781607,5001,0.482224618
84,Westpoint,,http://environment.data.gov.uk/hydrology/id/measures/37624cbe-e179-4f97-8901-2c1d1454c1db-gw-logged-i-subdaily-mAOD-qualified,298697,91240,50.711934,-3.436166,Permian Sandstone,Rocks with essentially no groundwater,,24.96103096,qualified,5505,4.664494003,5.67121846,3.939708043,10/1/2006,10/1/2021,16,16,No trend,-1.003314289,0.169794273,14,10/1/2006,10/1/2019,South West,698.7889628,51,0.747119493
85,West Cowick,http://environment.data.gov.uk/hydrology/id/measures/8d99a6b7-3f8a-4400-8890-c46c13c73521-gw-dipped-i-mAOD-qualified,,464601,421302,53.684177,-1.023343,Triassic Sandstone,Highly productive aquifer,Significant intergranular flow,5.946015835,qualified,359,0.98058408,3.446015835,-0.174984165,10/1/1993,10/1/2023,31,31,No trend,-0.350877193,0.074428125,29,10/1/1995,10/1/2023,North East,140.2040489,51,0.166111547
86,Iwerne Hill Farm,,http://environment.data.gov.uk/hydrology/id/measures/b35221a6-1049-4e08-9919-3a10ad732bc6-gw-logged-i-subdaily-mAOD-qualified,388580,114420,50.929113,-2.163861,Lower Greensand,Highly productive aquifer,Flow is virtually all through fractures and other discontinuities,186.0513611,qualified,5297,81.73731896,86.61802777,71.37063193,10/1/2008,10/1/2022,15,15,No trend,0.86507851,0.001332657,10,10/1/2010,10/1/2019,South West,71.12905241,101,1.082393953
87,Old Well House,,http://environment.data.gov.uk/hydrology/id/measures/1a4e369e-8a73-4f97-a001-531ea596d3ad-gw-logged-i-subdaily-mAOD-qualified,545070,153800,51.264897,0.077943,Lower Greensand,Highly productive aquifer,Significant intergranular flow,119.5168381,qualified,6587,20.77040772,25.2358381,16.1970881,10/1/1993,10/1/2020,28,23,Slow decreasing,5.258868169,0.26015292,12,10/1/1995,10/1/2006,Southern,192.8789838,1,0.838362806
88,Croxton Heath,http://environment.data.gov.uk/hydrology/id/measures/2a5dd70d-52b1-4c00-bf20-1028b59326d1-gw-dipped-i-mAOD-qualified,,589145,288195,52.458931,0.78252,Chalk,Highly productive aquifer,Flow is virtually all through fractures and other discontinuities,37.97511673,qualified,204,10.57982261,15.23511673,5.44511673,10/1/1998,10/1/2023,26,23,Slow decreasing,15.38765432,0.338369192,5,10/1/2002,10/1/2006,Anglian,190.2017817,5001,0.484200497
89,Sproxton,http://environment.data.gov.uk/hydrology/id/measures/5852df4d-b7da-4af7-a422-1ad4b28d5332-gw-dipped-i-mAOD-qualified,http://environment.data.gov.uk/hydrology/id/measures/5852df4d-b7da-4af7-a422-1ad4b28d5332-gw-logged-i-subdaily-mAOD-qualified,462352,481645,54.22672,-1.045082,Corallian Limestone,Rocks with essentially no groundwater,,71.12849426,qualified,13256,26.15446405,29.36849426,21.41182759,10/1/1972,10/1/2023,52,51,No trend,-1.52032532,0.149255387,52,10/1/1972,10/1/2023,North East,20.22620447,751,0.133081368
90,Mayhouse Farm,http://environment.data.gov.uk/hydrology/id/measures/a41e0cb3-e54e-43ac-b052-610f601a0964-gw-dipped-i-mAOD-qualified,,386475,262865,52.26377,-2.199586,Triassic Sandstone,Low productivity aquifer,Flow is virtually all through fractures and other discontinuities,37.08323669,qualified,430,2.10879483,4.03323669,-0.66676331,10/1/1983,10/1/2022,40,39,No trend,-0.732142857,0.056420935,25,10/1/1983,10/1/2007,Midlands,481.1097267,1001,0.097985215
91,Beenham,http://environment.data.gov.uk/hydrology/id/measures/814c9091-9ccc-4512-93ab-5fd08df8d2a0-gw-dipped-i-mAOD-qualified,http://environment.data.gov.uk/hydrology/id/measures/814c9091-9ccc-4512-93ab-5fd08df8d2a0-gw-logged-i-subdaily-mAOD-qualified,459335,169345,51.420017,-1.148079,Chalk,Rocks with essentially no groundwater,,99.51280212,qualified,8756,47.8582351,50.07280212,45.74280212,10/1/1979,10/1/2023,45,45,Slow increasing,-3.059924164,0.244025319,21,10/1/2003,10/1/2023,Thames,151.8133544,51,0.085198279
92,Brislands Lane,http://environment.data.gov.uk/hydrology/id/measures/ae17284d-6603-4a4d-b4d6-3c0379c258e2-gw-dipped-i-mAOD-qualified,,465473,133500,51.097074,-1.066369,Chalk,Highly productive aquifer,Flow is virtually all through fractures and other discontinuities,161.3292999,qualified,210,77.125538,84.7092999,67.8592999,10/1/1982,10/1/2022,41,35,Slow increasing,-2.511784512,0.039111382,29,10/1/1991,10/1/2019,Southern,109.1599471,1,1.169014765
93,Blackmore Farm,http://environment.data.gov.uk/hydrology/id/measures/47950d9b-0e6e-49bd-b91b-314465833a80-gw-dipped-i-mAOD-qualified,,426835,151855,51.26522,-1.61676,Chalk,Highly productive aquifer,Flow is virtually all through fractures and other discontinuities,134.1482849,qualified,104,35.72982336,50.4182849,14.7382849,10/1/1966,10/1/2023,58,47,Slow decreasing,4,0.037541612,31,10/1/1966,10/1/1996,Southern,195.603157,1,0.739359545
94,Fox Hall,http://environment.data.gov.uk/hydrology/id/measures/58ffea31-f875-40ef-8727-ff5692a7e6cf-gw-dipped-i-mAOD-qualified,,332235,325805,52.825485,-3.007123,Triassic Sandstone,Highly productive aquifer,Significant intergranular flow,77.65715027,qualified,456,0.517676586,1.24715027,-0.25284973,10/1/1978,10/1/2022,45,44,No trend,0.694188165,0.127710836,26,10/1/1978,10/1/2003,Midlands,220.7467912,251,0.851688908
95,Jevington,http://environment.data.gov.uk/hydrology/id/measures/954b9841-6469-41cf-8597-487334362e72-gw-dipped-i-mAOD-qualified,http://environment.data.gov.uk/hydrology/id/measures/954b9841-6469-41cf-8597-487334362e72-gw-logged-i-subdaily-mAOD-qualified,556341,101386,50.790961,0.216779,Chalk,Highly productive aquifer,Flow is virtually all through fractures and other discontinuities,73.28177643,qualified,6228,41.66263636,46.28030768,18.29052643,10/1/1976,10/1/2023,48,41,No trend,1.027117752,0.000616344,30,10/1/1977,10/1/2006,Southern,792.1305304,1,1.028218965
96,Pickworth,http://environment.data.gov.uk/hydrology/id/measures/b8cad42f-338d-48da-9ec7-ab923e5c7fca-gw-dipped-i-mAOD-qualified,,504095,334375,52.896741,-0.45402,Oolites,Moderately productive aquifer,Flow is virtually all through fractures and other discontinuities,55.0868187,qualified,635,29.94418878,34.3168187,20.8368187,10/1/1972,10/1/2023,52,43,No trend,-1.291666667,0.057229263,52,10/1/1972,10/1/2023,Anglian,47.21798928,751,0.245167161
97,Rowton,http://environment.data.gov.uk/hydrology/id/measures/6db14d79-b2bc-45e0-b7ef-dec22d39aba1-gw-dipped-i-mAOD-qualified,,360925,319485,52.771524,-2.580615,Permian Sandstone,Highly productive aquifer,Significant intergranular flow,58.59719849,negative groundwater depth,293,-2.870139394,-1.31280151,-4.28280151,10/1/1982,10/1/2020 0:00,39,37,,,,,,,,,,
98,Shawell Cottage,,http://environment.data.gov.uk/hydrology/id/measures/0a4f0d2c-7272-4a35-b486-baa48914ab2a_2848-gw-logged-i-subdaily-mAOD-qualified,349345,320265,52.777571,-2.752364,Permian Sandstone,Highly productive aquifer,Significant intergranular flow,106.4843445,qualified,3747,41.66977502,45.1268445,40.63767783,10/1/1997,10/1/2023,27,17,No trend,1.881260493,0.152124034,17,10/1/2007,10/1/2023,Midlands,172.7726856,251,0.329585158
99,Shawbury Park Wood,,http://environment.data.gov.uk/hydrology/id/measures/0a4f0d2c-7272-4a35-b486-baa48914ab2a_5006-gw-logged-i-subdaily-mAOD-qualified,355825,319105,52.767714,-2.656152,Permian Sandstone,Highly productive aquifer,Significant intergranular flow,67.76834869,qualified,8092,8.215863093,8.742640357,7.552140357,10/1/1998,10/1/2023,26,26,No trend,-0.426653823,0.010917674,22,10/1/1999,10/1/2020,Midlands,116.0637785,1001,0.540815618
100,Shawbury Park S,,http://environment.data.gov.uk/hydrology/id/measures/0a4f0d2c-7272-4a35-b486-baa48914ab2a_2877-gw-logged-i-subdaily-mAOD-qualified,355355,320295,52.778372,-2.66328,Permian Sandstone,Highly productive aquifer,Significant intergranular flow,67.83636475,same coordinate,3262,3.932050157,7.380809194,2.63511475,10/1/2003,10/1/2020 0:00,18,13,,,,,,,,,,
101,Shawbury Park A,http://environment.data.gov.uk/hydrology/id/measures/0a4f0d2c-7272-4a35-b486-baa48914ab2a_5017GW-gw-dipped-i-mAOD-qualified,,355355,320295,52.778372,-2.66328,Permian Sandstone,Highly productive aquifer,Significant intergranular flow,67.83636475,same coordinate,101,4.16656277,12.66636475,3.01636475,10/1/1998,10/1/2018 0:00,21,14,,,,,,,,,,
102,Ermin Farm,http://environment.data.gov.uk/hydrology/id/measures/767dc62b-76c6-446e-95ee-c5adcb24669a-gw-dipped-i-mAOD-qualified,,405544,199659,51.695648,-1.92118,Oolites,Highly productive aquifer,Flow is virtually all through fractures and other discontinuities,112.9208221,qualified,428,23.90416322,31.1108221,17.1908221,10/1/1987,10/1/2023,37,37,Slow increasing,-8.930902778,0.367676044,28,10/1/1996,10/1/2023,Thames,207.8760704,51,0.643702583
103,Jubilee Bridge,http://environment.data.gov.uk/hydrology/id/measures/6a354378-c07c-4b88-97cc-64e3365ca0b3-gw-dipped-i-mAOD-qualified,http://environment.data.gov.uk/hydrology/id/measures/6a354378-c07c-4b88-97cc-64e3365ca0b3-gw-logged-i-subdaily-mAOD-qualified,421000,534329,54.703534,-1.675633,Unallocated to aquifers,Moderately productive aquifer,Flow is virtually all through fractures and other discontinuities,56.94245529,qualified,10021,11.38579868,35.92037196,-0.62754471,10/1/1993,10/1/2023,31,31,Sudden upward change,-111.4407013,0.985630971,11,10/1/1997,10/1/2007,North East,461.5946749,1,0.39163317
104,Harnhill,http://environment.data.gov.uk/hydrology/id/measures/5d9bca57-a235-407e-969a-e09312f6928d-gw-dipped-i-mAOD-qualified,,406820,200070,51.699329,-1.902711,Oolites,Highly productive aquifer,Flow is virtually all through fractures and other discontinuities,100.0755157,negative groundwater depth,1005,-18.91009624,-12.2244843,-25.7144843,10/1/1974,10/1/2023 0:00,50,49,,,,,,,,,,
105,Moor Drain Sleaford,http://environment.data.gov.uk/hydrology/id/measures/63555bd0-1f0a-431f-bc94-5e9b04d2324a-gw-dipped-i-mAOD-qualified,,508385,343345,52.976496,-0.38728,Oolites,Rocks with essentially no groundwater,,8.161273956,negative groundwater depth,378,-6.467101705,-1.118726044,-9.688726044,10/1/1983,10/1/2023 0:00,41,37,,,,,,,,,,
106,Southover,http://environment.data.gov.uk/hydrology/id/measures/3d4a1bed-b01b-4329-ad16-55321640ed6e-gw-dipped-i-mAOD-qualified,,565221,271233,52.314334,0.422404,Chalk,Highly productive aquifer,Flow is virtually all through fractures and other discontinuities,16.11675835,qualified,239,12.00014747,13.74675835,9.76675835,10/1/1998,10/1/2023,26,23,Slow decreasing,2.130681818,0.048341415,1,10/1/2004,10/1/2004,Anglian,120.7795495,5001,0.247797921
107,Ogbourne,http://environment.data.gov.uk/hydrology/id/measures/c46dd2a3-5189-4c1f-b7ad-6f471ff3e6eb-gw-dipped-i-mAOD-qualified,http://environment.data.gov.uk/hydrology/id/measures/c46dd2a3-5189-4c1f-b7ad-6f471ff3e6eb-gw-logged-i-subdaily-mAOD-qualified,419454,172560,51.451688,-1.721421,Chalk,Highly productive aquifer,Flow is virtually all through fractures and other discontinuities,141.0203552,qualified,7573,8.45309994,14.1103552,3.2103552,10/1/1974,10/1/2022,49,49,No trend,-0.256114253,0.010823522,48,10/1/1975,10/1/2022,Thames,148.7496959,51,0.874259926
108,Little Thurlow,http://environment.data.gov.uk/hydrology/id/measures/1f47d9e0-1c60-4677-aad9-72bbe75ccdd7-gw-dipped-i-mAOD-qualified,,568000,251202,52.133572,0.453192,Lower Greensand,Highly productive aquifer,Flow is virtually all through fractures and other discontinuities,68.82952881,qualified,292,2.032415796,7.52952881,-0.87047119,10/1/1992,10/1/2023,32,30,No trend,-1.111111111,0.121586571,27,10/1/1996,10/1/2022,Anglian,123.4884868,1001,0.088557112
109,Crookhall Bridge,http://environment.data.gov.uk/hydrology/id/measures/51bf117d-6b84-443f-bb3d-d18e35a4fc14-gw-dipped-i-mAOD-qualified,,347235,450625,53.949007,-2.805446,Triassic Sandstone,Highly productive aquifer,Significant intergranular flow,6.24879694,qualified,481,0.613173239,2.28879694,-0.31120306,10/1/1961,10/1/2022,62,50,No trend,0.03125,0.006448543,60,10/1/1963,10/1/2022,North West,109.6645465,1,0.881533443
110,Cowfold,http://environment.data.gov.uk/hydrology/id/measures/55c24adc-8f28-49ad-aa28-814e8310eac9-gw-dipped-i-mAOD-qualified,http://environment.data.gov.uk/hydrology/id/measures/55c24adc-8f28-49ad-aa28-814e8310eac9-gw-logged-i-subdaily-mAOD-qualified,472765,157005,51.307516,-0.957493,Chalk,Rocks with essentially no groundwater,,65.90307617,qualified,486,7.533024887,10.33307617,6.67607617,10/1/1982,10/1/2023,42,23,Sudden upward change,-7.58729616,0.970722418,11,10/1/2004,10/1/2014,Thames,240.5824342,251,0.082542646
111,Elm Place,http://environment.data.gov.uk/hydrology/id/measures/7f907c25-a129-4b3f-b719-fc68764a3dca-gw-dipped-i-mAOD-qualified,,576126,301843,52.585849,0.598347,Chalk,Highly productive aquifer,Flow is virtually all through fractures and other discontinuities,17.40144539,qualified,238,9.018084045,9.88344539,7.84144539,10/1/1998,10/1/2022,25,25,No trend,0.124255952,0.003832313,22,10/1/2000,10/1/2021,Anglian,30.06412326,5001,0.319101773
112,Longstongs Limestone,http://environment.data.gov.uk/hydrology/id/measures/734acdbd-87cf-4179-a78d-dc2a0311cc84-gw-dipped-i-mAOD-qualified,,504035,371345,53.228955,-0.442978,Oolites,Moderately productive aquifer,Flow is virtually all through fractures and other discontinuities,1.490187407,negative groundwater depth,416,-2.250149131,0.500187407,-4.309812593,10/1/1980,10/1/2023 0:00,44,38,,,,,,,,,,
113,Rabbits Farm,http://environment.data.gov.uk/hydrology/id/measures/be219a43-918c-4c73-a57a-1388340ec5f4-gw-dipped-i-mAOD-qualified,,557750,168650,51.394955,0.266112,Chalk,Highly productive aquifer,Flow is virtually all through fractures and other discontinuities,78.079216,qualified,311,56.46201343,59.829216,53.209216,10/1/1992,10/1/2023,32,30,Slow increasing,-2.921875,0.046354427,32,10/1/1992,10/1/2023,Southern,529.9691253,1,0.52535308
114,Side Saddle Farm,http://environment.data.gov.uk/hydrology/id/measures/bfa1e86a-1789-4adc-b4a1-c89838dfc399-gw-dipped-i-mAOD-qualified,,359385,324605,52.817433,-2.604078,Permian Sandstone,Highly productive aquifer,Significant intergranular flow,73.83473206,qualified,280,2.153214203,3.64473206,0.54473206,10/1/1984,10/1/2020,37,33,No trend,-0.987190934,0.062254369,29,10/1/1991,10/1/2019,Midlands,65.83999262,1001,0.228916203
115,Fordington Down,,http://environment.data.gov.uk/hydrology/id/measures/46cb6796-334e-4737-9dae-711cdf640fb7-gw-logged-i-subdaily-mAOD-qualified,365369,90502,50.713108,-2.491858,Chalk,Highly productive aquifer,Flow is virtually all through fractures and other discontinuities,131.9833527,qualified,2611,57.44428583,63.58064437,47.19073245,10/1/2015,10/1/2023,9,9,Slow increasing,-56.18497189,0.469003527,9,10/1/2015,10/1/2023,South West,328.4548729,101,1.398197234
116,Figheldean Deep,http://environment.data.gov.uk/hydrology/id/measures/2b682b4f-0398-460e-8903-49d6d90c6eee_90114303-gw-dipped-i-mAOD-qualified,,415687,146780,51.22,-1.776759,Chalk,Highly productive aquifer,Flow is virtually all through fractures and other discontinuities,78.47982788,qualified,233,1.075021013,1.64982788,0.17982788,10/1/2002,10/1/2023,22,22,No trend,0.562770563,0.209958626,2,10/1/2002,10/1/2003,South West,182.7381644,51,0.815873772
117,Figheldean Shallow,http://environment.data.gov.uk/hydrology/id/measures/2b682b4f-0398-460e-8903-49d6d90c6eee_90114304-gw-dipped-i-mAOD-qualified,,415674,146792,51.220108,-1.776945,Chalk,Highly productive aquifer,Flow is virtually all through fractures and other discontinuities,79.05967712,qualified,238,1.4836267,2.06967712,0.58967712,10/1/2002,10/1/2023,22,22,No trend,0.405555556,0.025457165,11,10/1/2002,10/1/2012,South West,182.2749278,51,0.815873772
118,High Road Ashton Keynes,http://environment.data.gov.uk/hydrology/id/measures/78683a5b-89e4-44e5-a64b-cbd083e597dc-gw-dipped-i-mAOD-qualified,http://environment.data.gov.uk/hydrology/id/measures/78683a5b-89e4-44e5-a64b-cbd083e597dc-gw-logged-i-subdaily-mAOD-qualified,404780,193710,51.642166,-1.932313,Oolites,Rocks with essentially no groundwater,,83.46429443,qualified,6858,0.857691782,1.320961097,0.301086097,10/1/2004,10/1/2023,20,20,No trend,-0.689122778,0.253617109,20,10/1/2004,10/1/2023,Thames,113.806982,251,0.721167484
119,Hurst Green,http://environment.data.gov.uk/hydrology/id/measures/88286eee-3ce0-499f-bf67-212e35bbae4b-gw-dipped-i-mAOD-qualified,,349185,415085,53.6298,-2.769865,Triassic Sandstone,Highly productive aquifer,Significant intergranular flow,17.23407745,qualified,194,2.552634151,4.19407745,0.68407745,10/1/1969,10/1/2022,54,37,No trend,3.17E-15,0.015317011,48,10/1/1974,10/1/2021,North West,236.5106713,1,0.77189195
120,Upper Tean,http://environment.data.gov.uk/hydrology/id/measures/200d43b6-967a-49c2-b1d4-121c4b97dfcc-gw-dipped-i-mAOD-qualified,,400765,339725,52.95489,-1.990053,Triassic Sandstone,Low productivity aquifer,Flow is virtually all through fractures and other discontinuities,130.5397034,negative groundwater depth,682,-0.381660236,0.1197034,-0.9602966,10/1/1976,10/1/2022 0:00,47,47,,,,,,,,,,
121,Southrop,http://environment.data.gov.uk/hydrology/id/measures/6894a36c-daea-4444-a31d-d645b929f663-gw-dipped-i-mAOD-qualified,,418505,202345,51.719522,-1.733518,Oolites,Highly productive aquifer,Flow is virtually all through fractures and other discontinuities,93.98599243,negative groundwater depth,515,-2.36631825,0.03599243,-4.37400757,10/1/1983,10/1/2023 0:00,41,41,,,,,,,,,,
122,Ord Road,http://environment.data.gov.uk/hydrology/id/measures/e50d2979-eb5a-49bf-b5ca-1e4b3f313ed5-gw-dipped-i-mAOD-qualified,http://environment.data.gov.uk/hydrology/id/measures/e50d2979-eb5a-49bf-b5ca-1e4b3f313ed5-gw-logged-i-subdaily-mAOD-qualified,398710,652075,55.762006,-2.022117,Unallocated to aquifers,Moderately productive aquifer,Significant intergranular flow,18.18367958,qualified,7570,19.721217,32.84730458,11.53701291,10/1/1990,10/1/2013,24,24,Sudden downward change,80.04538691,0.941414208,10,10/1/2002,10/1/2011,North East,198.5340692,1,0.32314068
123,Crosshill,,http://environment.data.gov.uk/hydrology/id/measures/71a43cfe-c5cc-4091-af22-2edc55d071bb-gw-logged-i-subdaily-mAOD-qualified,349395,315345,52.733351,-2.750862,Permian Sandstone,Highly productive aquifer,Significant intergranular flow,79.69293213,qualified,9929,27.25451559,27.8530988,26.63614046,10/1/1991,10/1/2022,32,32,No trend,-0.412374257,0.034438438,2,10/1/1993,10/1/1994,Midlands,918.2436572,251,0.383523204
124,Newbarn Cottage,http://environment.data.gov.uk/hydrology/id/measures/59d94c00-c984-4a7b-98d4-d7234a58cc7f-gw-dipped-i-mAOD-qualified,,473235,118135,50.957995,-0.95864,Chalk,Highly productive aquifer,Flow is virtually all through fractures and other discontinuities,101.7678452,qualified,740,23.67669655,35.1478452,3.6378452,10/1/1965,10/1/2023,59,41,Slow increasing,-3.429442592,0.085885992,10,10/1/2004,10/1/2013,Southern,241.9944324,101,1.272843205
125,Walford,http://environment.data.gov.uk/hydrology/id/measures/d03630ed-a551-4ccd-8f9a-be4258495c14-gw-dipped-i-mAOD-qualified,,343235,320575,52.779748,-2.842985,Triassic Sandstone,Highly productive aquifer,Significant intergranular flow,74.95154572,qualified,343,17.70502969,20.05154572,16.51154572,10/1/1986,10/1/2022,37,33,No trend,0.893356075,0.114285844,37,10/1/1986,10/1/2022,Midlands,55.20586252,1001,0.374659501
126,Marldell,http://environment.data.gov.uk/hydrology/id/measures/0738d2b4-3427-4a0a-a00c-9b9d7ba46313-gw-dipped-i-mAOD-qualified,,463370,124996,51.020851,-1.097884,Chalk,Highly productive aquifer,Flow is virtually all through fractures and other discontinuities,118.7969742,qualified,179,38.90853845,41.9969742,33.9069742,10/1/1986,10/1/2022,37,31,No trend,-1,0.0933942,1,10/1/1991,10/1/1991,Southern,83.99278715,101,1.174027771
127,Barton upon Humber,http://environment.data.gov.uk/hydrology/id/measures/ce8cf0d5-73e8-436e-b13c-dac85cec8100-gw-dipped-i-mAOD-qualified,,504005,422425,53.687919,-0.42655,Chalk,Highly productive aquifer,Flow is virtually all through fractures and other discontinuities,3.374789,negative groundwater depth,210,-0.123639571,1.744789,-2.045211,10/1/1992,10/1/2022 0:00,31,24,,,,,,,,,,
128,Crondall,http://environment.data.gov.uk/hydrology/id/measures/4f106d94-1474-4ba2-a589-2e68da6ea20f-gw-dipped-i-mAOD-qualified,http://environment.data.gov.uk/hydrology/id/measures/4f106d94-1474-4ba2-a589-2e68da6ea20f-gw-logged-i-subdaily-mAOD-qualified,479475,148665,51.231643,-0.863102,Chalk,Highly productive aquifer,Flow is virtually all through fractures and other discontinuities,91.49639893,qualified,1616,6.850146192,10.53639893,3.36639893,10/1/1949,10/1/2023,75,75,No trend,-0.264410603,0.01995131,19,10/1/1995,10/1/2013,Thames,517.1250436,251,1.081700005
129,Vicarage Farm,http://environment.data.gov.uk/hydrology/id/measures/70073f33-1550-404a-85ca-e1bc6b476e21-gw-dipped-i-mAOD-qualified,,558418,262932,52.241771,0.318797,Chalk,Highly productive aquifer,Flow is virtually all through fractures and other discontinuities,31.22914124,qualified,229,17.832067,24.38914124,12.00914124,10/1/1998,10/1/2019,22,22,Slow decreasing,8.145833333,0.199061683,19,10/1/2000,10/1/2018,Anglian,218.7500344,5001,0.285328371
130,Hoad Farm,http://environment.data.gov.uk/hydrology/id/measures/2564c462-a022-4919-96ac-c2b3eb9fc706-gw-dipped-i-mAOD-qualified,,617867,156290,51.264106,1.12149,Oolites,Moderately productive aquifer,Significant intergranular flow,46.54291534,qualified,324,29.67001411,35.83291534,23.14291534,10/1/1967,10/1/2022,56,40,Slow increasing,-2.34032416,0.011240134,19,10/1/1991,10/1/2009,Southern,690.3078215,1001,0.665256416
131,Higham Mill,http://environment.data.gov.uk/hydrology/id/measures/b78d818a-7953-4e67-ba1e-a6da2a27c2b7-gw-dipped-i-mAOD-qualified,,572288,171659,51.41776,0.47634,Chalk,Moderately productive aquifer,Significant intergranular flow,56.71195221,qualified,525,52.62372364,53.94195221,51.76195221,10/1/1967,10/1/2023,57,57,No trend,0.38282967,0.166292367,24,10/1/2000,10/1/2023,Southern,1074.38586,251,0.410519965
132,Toad Hall,http://environment.data.gov.uk/hydrology/id/measures/2e47e370-8d67-4bf0-bc78-d35aa1a6214b-gw-dipped-i-mAOD-qualified,,556510,131382,51.060446,0.23204,Corallian Limestone,Moderately productive aquifer,Significant intergranular flow,130.0462952,qualified,230,10.01653433,11.2962952,7.5162952,10/1/1977,10/1/2022,46,39,No trend,1.737804878,0.608256306,11,10/1/1983,10/1/1993,Southern,246.9154949,251,1.269972258
133,Whitbread,http://environment.data.gov.uk/hydrology/id/measures/cb99c895-3432-4674-b3d0-1a4e6c23aa10-gw-dipped-i-mAOD-qualified,,358495,428785,53.753753,-2.630933,Carboniferous Limestone,Highly productive aquifer,Significant intergranular flow,48.58363342,qualified,124,37.92960116,40.23363342,35.41363342,10/1/1980,10/1/2022,43,33,Sudden upward change,-8.847604364,0.928695274,12,10/1/2002,10/1/2013,North West,1272.978993,1,0.883270678
134,Leedsgate Farm,http://environment.data.gov.uk/hydrology/id/measures/064f5941-fc17-4cd0-8618-2b8bcf722954-gw-dipped-i-mAOD-qualified,,523725,358735,53.111449,-0.153044,Oolites,Rocks with essentially no groundwater,,10.24935913,qualified,364,1.496501987,2.44935913,0.75935913,10/1/1982,10/1/2023,42,35,No trend,0.169444444,0.09349063,1,10/1/2022,10/1/2022,Anglian,132.5070188,751,0.057644812
135,Perimeter Road,,http://environment.data.gov.uk/hydrology/id/measures/62090afb-44e6-4848-93b7-44bf3c02e7e2-gw-logged-i-subdaily-mAOD-qualified,343945,398145,53.477019,-2.846049,Unallocated to aquifers,Highly productive aquifer,Significant intergranular flow,48.57095718,qualified,400,24.44043687,30.23095718,9.59095718,10/1/1966,10/1/2021,56,47,Slow increasing,-42.43191057,0.979545756,17,10/1/1985,10/1/2001,North West,1095.523224,101,0.347487703
136,Alsa Wood Cottage,http://environment.data.gov.uk/hydrology/id/measures/d7f39c74-20b8-4ecc-a730-659b45565cac-gw-dipped-i-mAOD-qualified,,552259,226414,51.915438,0.212382,Chalk,Rocks with essentially no groundwater,,99.39503479,qualified,458,34.04005662,37.03503479,30.52503479,10/1/1981,10/1/2023,43,43,No trend,-0.355263158,0.012964139,28,10/1/1996,10/1/2023,Thames,252.0835559,101,0.415484245
137,Lullingstone,http://environment.data.gov.uk/hydrology/id/measures/3335e750-8b05-4eff-a0bc-e06f9f9226dc_441325004-gw-dipped-i-mAOD-qualified,http://environment.data.gov.uk/hydrology/id/measures/3335e750-8b05-4eff-a0bc-e06f9f9226dc_441325004-gw-logged-i-subdaily-mAOD-qualified,553496,164800,51.361528,0.203352,Lower Greensand,Highly productive aquifer,Flow is virtually all through fractures and other discontinuities,52.74417877,qualified,3744,12.01320258,14.20417877,9.899970437,10/1/1997,10/1/2021,25,25,No trend,-1.661682301,0.078586327,23,10/1/1998,10/1/2020,Southern,413.8281749,1,0.602623581
138,Lullingstone Eynsford,,http://environment.data.gov.uk/hydrology/id/measures/3335e750-8b05-4eff-a0bc-e06f9f9226dc_441325005-gw-logged-i-subdaily-mAOD-qualified,553497,164823,51.361735,0.203376,Lower Greensand,Highly productive aquifer,Flow is virtually all through fractures and other discontinuities,53.60531235,no enough data,no enough data,,,,,,,,,,,,,,,,,
139,Kenninghall Place,,http://environment.data.gov.uk/hydrology/id/measures/11e7f57d-5806-4011-9ddb-31d2fdae617e-gw-logged-i-subdaily-mAOD-qualified,607453,285624,52.42921,1.049995,Chalk,Highly productive aquifer,Flow is virtually all through fractures and other discontinuities,51.03430939,qualified,218,7.357199298,9.63430939,6.00430939,10/1/1998,10/1/2018,21,21,No trend,-0.314194139,0.070908194,19,10/1/1998,10/1/2016,Anglian,81.06147605,5001,0.290103804
140,St Philomenas School,http://environment.data.gov.uk/hydrology/id/measures/eb17f237-a0e0-4dfb-bb81-2c183ce967c1-gw-dipped-i-mAOD-qualified,,527582,164390,51.36425,-0.168785,Chalk,Moderately productive aquifer,Significant intergranular flow,38.49332047,qualified,366,3.915301344,11.14332047,-0.63667953,10/1/1989,10/1/2022,34,30,Slow increasing,-8.771900826,0.60674959,10,10/1/1989,10/1/1998,Thames,4703.402071,101,0.44275799
141,Church Farm Cottage,http://environment.data.gov.uk/hydrology/id/measures/07da52f8-7dae-415c-87ed-77a0ed3a5b28-gw-dipped-i-mAOD-qualified,,585105,309829,52.654579,0.735193,Chalk,Highly productive aquifer,Flow is virtually all through fractures and other discontinuities,59.73609161,qualified,129,10.96919239,14.30609161,4.44609161,10/1/2005,10/1/2023,19,15,Slow decreasing,2.035353535,0.073033426,2,10/1/2005,10/1/2006,Anglian,120.5519084,5001,0.403419212
142,High School,http://environment.data.gov.uk/hydrology/id/measures/8730b0fa-4d19-4b85-a5cf-48477310e550-gw-dipped-i-mAOD-qualified,,384465,397785,53.476548,-2.235523,Unallocated to aquifers,Highly productive aquifer,Significant intergranular flow,40.15824127,qualified,182,12.91104347,14.74824127,11.88824127,10/1/1970,10/1/2020,51,36,No trend,-0.845262097,0.292862394,50,10/1/1970,10/1/2019,North West,5804.207958,1,0.591245867
143,Lullingstone Centre,http://environment.data.gov.uk/hydrology/id/measures/7f7c7c32-e2e9-46ab-9465-d03d1330db87-gw-dipped-i-mAOD-qualified,,552677,163876,51.353447,0.191201,Chalk,Highly productive aquifer,Flow is virtually all through fractures and other discontinuities,46.84046936,qualified,510,1.402547791,2.85046936,-0.10953064,10/1/1992,10/1/2023,32,32,No trend,-1.14101535,0.114278971,26,10/1/1996,10/1/2021,Southern,387.0153468,1,0.564974735
144,Washdyke Bridge,http://environment.data.gov.uk/hydrology/id/measures/2046056b-bafa-481c-9646-13a74b573059-gw-dipped-i-mAOD-qualified,,547545,379465,53.291599,0.212122,Chalk,Highly productive aquifer,Flow is virtually all through fractures and other discontinuities,2.51836729,qualified,935,1.513319162,2.82836729,0.48836729,10/1/1973,10/1/2023,51,47,No trend,1.794642857,0.716398708,26,10/1/1976,10/1/2001,Anglian,103.3178668,751,0.222616593
145,Wilmington Grammar,http://environment.data.gov.uk/hydrology/id/measures/da309054-7693-454f-a194-239221c69f97-gw-dipped-i-mAOD-qualified,http://environment.data.gov.uk/hydrology/id/measures/da309054-7693-454f-a194-239221c69f97-gw-logged-i-subdaily-mAOD-qualified,552461,172312,51.429302,0.191722,Lower Greensand,Highly productive aquifer,Flow is virtually all through fractures and other discontinuities,25.87277412,qualified,5180,14.09197657,16.22277412,11.88456579,10/1/1995,10/1/2022,28,28,Slow increasing,-2.488044278,0.09514656,26,10/1/1995,10/1/2020,Southern,2115.768011,1,0.490516765
146,Dowlands Tangley,http://environment.data.gov.uk/hydrology/id/measures/e8e26bb3-d369-49d2-8278-cec3a97f8a80-gw-dipped-i-mAOD-qualified,,433405,153605,51.280609,-1.522434,Chalk,Highly productive aquifer,Flow is virtually all through fractures and other discontinuities,200.5324402,qualified,421,78.00996989,79.2624402,75.1824402,10/1/1986,10/1/2023,38,37,No trend,0.034564394,0.164687169,2,10/1/2022,10/1/2023,Southern,105.1835938,1,1.088979844
147,Eve Stud,http://environment.data.gov.uk/hydrology/id/measures/e471ecc9-e5fa-4cb4-8f8d-ed27f9fdbd45-gw-dipped-i-mAOD-qualified,,566175,258171,52.196721,0.429963,Chalk,Highly productive aquifer,Flow is virtually all through fractures and other discontinuities,114.4790649,qualified,221,49.54227757,52.9290649,46.4290649,10/1/1998,10/1/2023,26,24,Slow increasing,-10.9909612,0.637735255,26,10/1/1998,10/1/2023,Anglian,86.99495652,5001,0.101322467
148,Mells,,http://environment.data.gov.uk/hydrology/id/measures/c2001071-b7da-4037-aea6-4043cfb8ad3d-gw-logged-i-subdaily-mAOD-qualified,372914,150202,51.250334,-2.389465,Oolites,Moderately productive aquifer,Flow is virtually all through fractures and other discontinuities,118.1102448,no enough data,no enough data,,,,,,,,,,,,,,,,,
149,Newholme Ellisfield,http://environment.data.gov.uk/hydrology/id/measures/4a009eb9-6d69-43f8-9af1-e7229d8db05e-gw-dipped-i-mAOD-qualified,,463527,144137,51.192928,-1.092282,Chalk,Highly productive aquifer,Flow is virtually all through fractures and other discontinuities,140.4055786,no enough data,no enough data,,,,,,,,,,,,,,,,,
150,The Soapworks,,http://environment.data.gov.uk/hydrology/id/measures/20575939-1f24-4294-ae22-a4892f589274-gw-logged-i-subdaily-mAOD-qualified,381619,396701,53.466712,-2.278339,Triassic Sandstone,Highly productive aquifer,Significant intergranular flow,23.65332031,qualified,4579,2.799723389,3.339986977,2.280403643,10/1/2002,10/1/2021,20,18,No trend,-1.739472468,0.653534292,10,10/1/2002,10/1/2011,North West,4941.620278,101,0.38125332
151,Clap Gate Cottage,http://environment.data.gov.uk/hydrology/id/measures/d6c2f7f0-bb0e-4111-a07a-940c2d586bb2-gw-dipped-i-mAOD-qualified,,446155,152255,51.267583,-1.339817,Chalk,Highly productive aquifer,Flow is virtually all through fractures and other discontinuities,104.7096481,qualified,671,16.04352291,22.4696481,5.1796481,10/1/1959,10/1/2023,65,64,No trend,0.001909189,0.123862169,2,10/1/2022,10/1/2023,Southern,85.92842909,1,0.9584702
152,Quickset Road,http://environment.data.gov.uk/hydrology/id/measures/43cf6c22-50e8-4249-a3eb-6e9279da10a8-gw-dipped-i-mAOD-qualified,,546945,240221,52.040912,0.141085,Chalk,Highly productive aquifer,Flow is virtually all through fractures and other discontinuities,87.8184967,qualified,244,31.53841473,38.4084967,21.9684967,10/1/1998,10/1/2023,26,24,Slow decreasing,9.905856643,0.078992696,18,10/1/2000,10/1/2017,Anglian,99.51277419,5001,0.107625637
153,Perrotts Brook,http://environment.data.gov.uk/hydrology/id/measures/494476b6-d74c-4325-b7c6-c8956024be63-gw-dipped-i-mAOD-qualified,http://environment.data.gov.uk/hydrology/id/measures/494476b6-d74c-4325-b7c6-c8956024be63-gw-logged-i-subdaily-mAOD-qualified,401936,206076,51.753367,-1.973348,Oolites,Highly productive aquifer,Flow is virtually all through fractures and other discontinuities,123.4022064,qualified,8956,2.563235527,8.2879564,-2.8957936,10/1/1982,10/1/2022,41,40,No trend,0.516991916,0.085162291,8,10/1/2009,10/1/2016,Thames,194.6280935,51,0.809726926
154,Greatwood Farm,,http://environment.data.gov.uk/hydrology/id/measures/c0b13c5f-e0d8-4984-9bfc-e8495ef39da2-gw-logged-i-subdaily-mAOD-qualified,377925,331205,52.877844,-2.329438,Unallocated to aquifers,Highly productive aquifer,Significant intergranular flow,166.7106934,qualified,3354,60.82329952,61.8756934,59.76027673,10/1/2013,10/1/2023,11,11,No trend,-0.857192994,0.296340693,1,10/1/2018,10/1/2018,Midlands,71.73843159,251,0.737655799
155,Newmans Yard,,http://environment.data.gov.uk/hydrology/id/measures/952e26ac-e16d-4ad4-b748-cd128479e1a8-gw-logged-i-subdaily-mAOD-qualified,592023,329670,52.830317,0.848937,Chalk,Highly productive aquifer,Flow is virtually all through fractures and other discontinuities,42.18383026,qualified,458,7.928414463,8.17383026,7.54383026,10/1/1993,10/1/2020,28,25,No trend,0.227705628,0.025693552,17,10/1/1993,10/1/2009,Anglian,142.0011322,1001,0.493229951
156,Little London Bramdean,http://environment.data.gov.uk/hydrology/id/measures/1045ceba-57c3-4e8a-b99e-7396e3a5cb98-gw-dipped-i-mAOD-qualified,,460449,128193,51.049909,-1.138992,Chalk,Highly productive aquifer,Flow is virtually all through fractures and other discontinuities,78.57444763,qualified,469,4.291654453,7.25444763,1.22444763,10/1/1963,10/1/2023,61,49,No trend,-0.37309264,0.069533648,25,10/1/1996,10/1/2020,Southern,87.87074394,1,1.11005575
157,School Lane,http://environment.data.gov.uk/hydrology/id/measures/74978a8a-71e3-4c75-8ac3-550fdbe11922-gw-dipped-i-mAOD-qualified,,557690,167110,51.381135,0.264566,Chalk,Highly productive aquifer,Flow is virtually all through fractures and other discontinuities,104.5039063,qualified,482,73.94847062,75.7939063,71.8839063,10/1/1980,10/1/2022,43,43,No trend,-1.515597148,0.339872102,2,10/1/2012,10/1/2013,Southern,398.7543659,1,0.52535308
158,Trafalgar square,http://environment.data.gov.uk/hydrology/id/measures/7982fec4-ffd8-424f-b198-af6b58e9796c-gw-dipped-i-mAOD-qualified,http://environment.data.gov.uk/hydrology/id/measures/7982fec4-ffd8-424f-b198-af6b58e9796c-gw-logged-i-subdaily-mAOD-qualified,529974,180507,51.508548,-0.128535,Chalk,Rocks with essentially no groundwater,,12.5896759,qualified,4635,61.62527866,100.1796759,46.16709257,10/1/1950,10/1/2023,74,66,Slow increasing,-80.2456374,0.974078338,29,10/1/1970,10/1/1998,Thames,11773.5324,251,0.025185765
159,Seascale Hall,http://environment.data.gov.uk/hydrology/id/measures/0291a14f-c3c7-4665-addf-4e84e94aa0bc-gw-dipped-i-mAOD-qualified,,303975,502765,54.411225,-3.481051,Triassic Sandstone,Highly productive aquifer,Significant intergranular flow,25.35424614,qualified,125,10.10896614,11.40424614,8.96424614,10/1/1973,10/1/2010,38,29,No trend,-1.354275599,0.111797242,38,10/1/1973,10/1/2010,North West,29.2,1,1.562164001
160,Carley Hill,http://environment.data.gov.uk/hydrology/id/measures/83e28db3-9d76-417a-a9be-34d1a458d8bf-gw-dipped-i-mAOD-qualified,http://environment.data.gov.uk/hydrology/id/measures/83e28db3-9d76-417a-a9be-34d1a458d8bf-gw-logged-i-subdaily-mAOD-qualified,438764,559423,54.927976,-1.396634,Magnesian Limestone,Highly productive aquifer,Flow is virtually all through fractures and other discontinuities,55.33877563,qualified,6395,52.12931548,53.4354423,49.7155673,10/1/2001,10/1/2023,23,23,Slow increasing,-6.110138878,0.462007886,5,10/1/2008,10/1/2012,North East,2619.770622,1,0.298796314
161,Ixworth Thorpe,http://environment.data.gov.uk/hydrology/id/measures/c0ef2e8d-c302-47bd-999b-989de836657a-gw-dipped-i-mAOD-qualified,,591773,272541,52.317455,0.812198,Chalk,Highly productive aquifer,Flow is virtually all through fractures and other discontinuities,45.29453278,qualified,227,21.11572221,22.11453278,20.06453278,10/1/1998,10/1/2019,22,22,Slow decreasing,3.186666667,0.533165821,19,10/1/2000,10/1/2018,Anglian,69.28947516,5001,0.264757057
162,Swan Carr,http://environment.data.gov.uk/hydrology/id/measures/a2a040b9-b64d-4361-860a-371fb2450d8f-gw-dipped-i-mAOD-qualified,,431413,527055,54.637628,-1.514829,Magnesian Limestone,Highly productive aquifer,Flow is virtually all through fractures and other discontinuities,78.58377838,qualified,1239,6.185658929,14.75377838,3.80377838,10/1/1968,10/1/2023,56,54,Sudden upward change,-5.02490942,0.916600966,4,10/1/1976,10/1/1979,North East,303.3066232,251,0.33672863
163,Chipley,http://environment.data.gov.uk/hydrology/id/measures/63481815-a9d3-432e-a0e3-e5b297008edb-gw-dipped-i-mAOD-qualified,,311702,125300,51.020265,-3.260252,Unallocated to aquifers,Highly productive aquifer,Significant intergranular flow,90.04476166,qualified,284,10.98342011,17.85476166,5.46476166,10/1/1992,10/1/2023,32,29,No trend,0.152146465,0.005352885,32,10/1/1992,10/1/2023,South West,182.5124098,51,1.233020396
164,Vauxhall Road,,http://environment.data.gov.uk/hydrology/id/measures/dd2b5853-7618-485f-9272-7206db1d9048-gw-logged-i-subdaily-mAOD-qualified,334360,392220,53.422661,-2.989207,Triassic Sandstone,Highly productive aquifer,Significant intergranular flow,18.92000008,qualified,6449,23.6891609,25.02833341,22.25166675,10/1/2001,10/1/2020,20,20,No trend,-1.985482231,0.330778979,6,10/1/2001,10/1/2006,North West,5253.566562,101,0.272630709
165,North Dean House,http://environment.data.gov.uk/hydrology/id/measures/96a6e2a5-2842-4704-8d2c-8daa179e2b10-gw-dipped-i-mAOD-qualified,http://environment.data.gov.uk/hydrology/id/measures/96a6e2a5-2842-4704-8d2c-8daa179e2b10-gw-logged-i-subdaily-mAOD-qualified,485540,198150,51.67561,-0.764307,Chalk,Highly productive aquifer,Flow is virtually all through fractures and other discontinuities,111.8564377,qualified,4582,10.44922656,18.7764377,1.1764377,10/1/1974,10/1/2023,50,50,Slow decreasing,5.534090909,0.097073649,9,10/1/1982,10/1/1990,Thames,714.9730999,51,0.920892586
166,Wilgate Green,http://environment.data.gov.uk/hydrology/id/measures/01e2532a-1f3d-45db-a9a3-f6667b446ab0-gw-dipped-i-mAOD-qualified,http://environment.data.gov.uk/hydrology/id/measures/01e2532a-1f3d-45db-a9a3-f6667b446ab0-gw-logged-i-subdaily-mAOD-qualified,599994,156917,51.276283,0.866011,Lower Greensand,Highly productive aquifer,Flow is virtually all through fractures and other discontinuities,72.04188538,qualified,7446,46.26287823,51.69044788,38.52188538,10/1/1999,10/1/2023,25,25,Slow decreasing,13.49600433,0.168187535,24,10/1/2000,10/1/2023,Southern,281.3677158,251,0.650750037
167,Hut and Lodge Farm,http://environment.data.gov.uk/hydrology/id/measures/9c05cd86-875d-44b7-96fe-d30954c52977_90102105-gw-dipped-i-mAOD-qualified,,404342,122490,51.001781,-1.939488,Lower Greensand,Highly productive aquifer,Flow is virtually all through fractures and other discontinuities,170.328125,qualified,352,67.67866477,76.818125,54.498125,10/1/1991,10/1/2023,33,33,Slow increasing,-3.380858725,0.047224159,33,10/1/1991,10/1/2023,South West,55.14810851,51,1.180793764
168,Pettaugh,http://environment.data.gov.uk/hydrology/id/measures/16995b14-addc-4516-b499-677e2a0cd6f0-gw-dipped-i-mAOD-qualified,,617660,260672,52.201271,1.183755,Crag,Highly productive aquifer,Flow is virtually all through fractures and other discontinuities,37.95082092,qualified,107,3.476802228,4.97082092,-0.37917908,10/1/1995,10/1/2023,29,22,Slow increasing,-3,0.225636367,2,10/1/2008,10/1/2009,Anglian,56.95768427,2501,0.224089412
169,Abbotscroft Farm,http://environment.data.gov.uk/hydrology/id/measures/71051d15-47c2-400f-959a-7cba8c43f259-gw-dipped-i-mAOD-qualified,,464946,131202,51.076473,-1.074306,Chalk,Highly productive aquifer,Flow is virtually all through fractures and other discontinuities,119.0511322,qualified,211,36.95966301,44.0011322,27.6311322,10/1/1982,10/1/2022,41,33,No trend,-1.677146465,0.019856989,14,10/1/2007,10/1/2020,Southern,103.1883483,1,1.084987031
170,Campdenhill Farm,http://environment.data.gov.uk/hydrology/id/measures/5f9e9076-b537-428c-8f88-6750a9fa8903-gw-dipped-i-mAOD-qualified,,414935,236635,52.027922,-1.783724,Triassic Sandstone,Rocks with essentially no groundwater,,223.177536,qualified,338,3.41866026,4.347536,2.167536,10/1/1994,10/1/2022,29,29,No trend,0.641477273,0.02399435,23,10/1/1999,10/1/2021,Midlands,89.72379056,501,0.726637336
171,Allford Brook,http://environment.data.gov.uk/hydrology/id/measures/d3b2178f-aa60-4cbe-95da-9811c423172d-gw-dipped-i-mAOD-qualified,,365525,322385,52.797907,-2.512742,Unallocated to aquifers,Highly productive aquifer,Significant intergranular flow,58.01355362,qualified,327,1.84766677,2.58355362,1.18355362,10/1/1972,10/1/2022,51,37,No trend,0.534054405,0.21730433,51,10/1/1972,10/1/2022,Midlands,72.83920496,1001,0.348421058
172,Highwood Farm,http://environment.data.gov.uk/hydrology/id/measures/b1946b16-9390-4bb1-a7e1-69197f59858d-gw-dipped-i-mAOD-qualified,,448095,169055,51.418472,-1.309748,Chalk,Highly productive aquifer,Flow is virtually all through fractures and other discontinuities,89.41261292,qualified,1661,13.92088505,15.86261292,10.60261292,10/1/1963,10/1/2019,57,54,No trend,0.147275641,0.007275181,18,10/1/2000,10/1/2017,Thames,785.1701275,51,1.021617776
173,Capel Church Farm,,http://environment.data.gov.uk/hydrology/id/measures/a7f305dd-bb99-4a56-95d2-8f9b6e168cb1-gw-logged-i-subdaily-mAOD-qualified,625386,140103,51.115864,1.218936,Chalk,Highly productive aquifer,Flow is virtually all through fractures and other discontinuities,138.7361755,qualified,5759,68.23326177,83.58846717,54.8494255,10/1/2005,10/1/2021,17,17,No trend,-4.554465163,0.001154554,16,10/1/2005,10/1/2020,Southern,773.3551718,1001,1.079840652
174,Hutton Villa,http://environment.data.gov.uk/hydrology/id/measures/055446c6-678b-41d1-83fa-2a454dbe1f3d-gw-dipped-i-mAOD-qualified,http://environment.data.gov.uk/hydrology/id/measures/055446c6-678b-41d1-83fa-2a454dbe1f3d-gw-logged-i-subdaily-mAOD-qualified,432951,528556,54.651019,-1.490833,Magnesian Limestone,Highly productive aquifer,Flow is virtually all through fractures and other discontinuities,81.87039948,qualified,10292,8.65161489,10.60473281,7.52039948,10/1/1992,10/1/2023,32,32,Sudden upward change,-3.942996665,0.8929714,10,10/1/1992,10/1/2001,North East,190.7198911,251,0.33672863
175,Holly Lodge,http://environment.data.gov.uk/hydrology/id/measures/c4d7f6ca-9a16-47de-bcd1-be75cc129aa5-gw-dipped-i-mAOD-qualified,,455474,355836,53.096842,-1.172998,Magnesian Limestone,Highly productive aquifer,Significant intergranular flow,145.8835602,qualified,587,27.12788729,29.6435602,25.0135602,10/1/1974,10/1/2023,50,50,Slow increasing,-3.437354312,0.341508311,50,10/1/1974,10/1/2023,Midlands,641.1610676,2501,0.669990449
176,Butterbache,,http://environment.data.gov.uk/hydrology/id/measures/ae821fd8-259b-4460-9528-aaeffcfea6f5-gw-logged-i-subdaily-mAOD-qualified,342026,365125,53.180041,-2.868906,Triassic Sandstone,Highly productive aquifer,Significant intergranular flow,8.6740942,qualified,4849,1.342871266,1.747698367,0.825385867,10/1/2008,10/1/2022,15,15,No trend,-1.407726859,0.491918454,12,10/1/2008,10/1/2019,North West,1179.835327,1,0.345363891
177,Asthall Barrow Farm,http://environment.data.gov.uk/hydrology/id/measures/3bcbe579-e8f2-4f3d-9e56-d11780ca5f2b-gw-dipped-i-mAOD-qualified,,428955,210655,51.793796,-1.58156,Oolites,Highly productive aquifer,Flow is virtually all through fractures and other discontinuities,98.39550781,qualified,373,1.983791992,3.40550781,0.24550781,10/1/1977,10/1/2023,47,44,No trend,0.191641692,0.07123165,6,10/1/2018,10/1/2023,Thames,312.0678377,51,0.556817695
178,Renwick,,http://environment.data.gov.uk/hydrology/id/measures/bfff135b-8e78-4e91-8777-41db3804b98d-gw-logged-i-subdaily-mAOD-qualified,359355,541775,54.769227,-2.63327,Permian Sandstone,Highly productive aquifer,Significant intergranular flow,204.2960205,qualified,4997,26.45577349,29.3715205,23.11447883,10/1/2006,10/1/2021,16,16,Slow increasing,-4.189711942,0.174355825,3,10/1/2006,10/1/2008,North West,15.64554883,1,1.643606809
179,Wrottesley 1,http://environment.data.gov.uk/hydrology/id/measures/81ce2d5f-4acc-4efd-9019-a225188be40e-gw-dipped-i-mAOD-qualified,,382645,300955,52.606088,-2.257696,Triassic Sandstone,Low productivity aquifer,Flow is virtually all through fractures and other discontinuities,151.5214539,qualified,376,38.80407358,39.9914539,36.8714539,10/1/1988,10/1/2021,34,34,Slow increasing,-2.368560606,0.144516746,32,10/1/1989,10/1/2020,Midlands,329.3739404,1001,0.534420999
180,Scamblesby,http://environment.data.gov.uk/hydrology/id/measures/601551ad-3362-47c4-8f7d-82ccae962f19-gw-dipped-i-mAOD-qualified,,529005,378385,53.28673,-0.06628,Spilsby Sandstone,Rocks with essentially no groundwater,,85.49853516,qualified,518,21.97173979,23.19853516,20.78853516,10/1/1976,10/1/2023,48,44,Sudden downward change,2.334152127,0.894586326,5,10/1/1987,10/1/1991,Anglian,21.79842153,751,0.570054838
181,Manor Farm T,http://environment.data.gov.uk/hydrology/id/measures/e8582bed-b0d8-4274-a3bd-1a2a2bfc74ed_441320008-gw-dipped-i-mAOD-qualified,,554748,167107,51.381917,0.222324,Chalk,Highly productive aquifer,Flow is virtually all through fractures and other discontinuities,31.99289131,same coordinate,291,2.281344918,4.20289131,0.72289131,10/1/1995,10/1/2019 0:00,25,24,,,,,,,,,,
182,Manor Farm B,http://environment.data.gov.uk/hydrology/id/measures/e8582bed-b0d8-4274-a3bd-1a2a2bfc74ed_441320007-gw-dipped-i-mAOD-qualified,,554748,167107,51.381917,0.222324,Chalk,Highly productive aquifer,Flow is virtually all through fractures and other discontinuities,31.99289131,same coordinate,396,3.456009997,8.08289131,0.72289131,10/1/1995,10/1/2019 0:00,25,24,,,,,,,,,,
183,Ainsdale High School,,http://environment.data.gov.uk/hydrology/id/measures/54e06751-a936-4ece-beec-0ccca80d8b34-gw-logged-i-subdaily-mAOD-qualified,331455,412895,53.608095,-3.037443,Triassic Sandstone,Low productivity aquifer,Flow is virtually all through fractures and other discontinuities,12.58535576,qualified,7783,1.084923609,1.840022427,0.149877499,10/1/1998,10/1/2023,26,26,No trend,1.690948832,0.262220723,16,10/1/2001,10/1/2016,North West,967.4226659,1,0.655384277
184,Little London,,http://environment.data.gov.uk/hydrology/id/measures/3b0b053e-d5f1-4650-8f64-26aad22dfa9e-gw-logged-i-subdaily-mAOD-qualified,462315,159330,51.329657,-1.106982,Chalk,Rocks with essentially no groundwater,,69.25401306,qualified,7371,6.441488506,8.654846393,3.978054727,10/1/1997,10/1/2021,25,24,Slow increasing,-18.54769341,0.890475471,23,10/1/1998,10/1/2020,Thames,364.3235502,251,0.983390953
185,Bishop Burton Wold,http://environment.data.gov.uk/hydrology/id/measures/b2762ee0-2307-4479-9282-6354a684ade3-gw-dipped-i-mAOD-qualified,,496510,440824,53.854672,-0.534255,Chalk,Highly productive aquifer,Flow is virtually all through fractures and other discontinuities,60.4925766,qualified,467,46.68987853,57.3525766,25.4425766,10/1/1979,10/1/2023,45,41,Slow increasing,-2.228213075,0.086112822,8,10/1/2016,10/1/2023,North East,133.1871301,51,0.596741189
186,Westwell,http://environment.data.gov.uk/hydrology/id/measures/2849e521-2c90-4b22-8118-e66ddc1a134d-gw-dipped-i-mAOD-qualified,,421650,209780,51.786258,-1.687531,Oolites,Highly productive aquifer,Flow is virtually all through fractures and other discontinuities,129.6366577,qualified,733,15.12309699,23.3066577,2.5766577,10/1/1969,10/1/2023,55,51,Slow increasing,-7.572916667,0.338716172,55,10/1/1969,10/1/2023,Thames,45.79419257,251,0.667514459
187,Furnace Grange,http://environment.data.gov.uk/hydrology/id/measures/8f4618a9-0bc3-4491-8226-64ec6705350c-gw-dipped-i-mAOD-qualified,,384495,296555,52.566589,-2.230171,Triassic Sandstone,Highly productive aquifer,Significant intergranular flow,89.9910202,qualified,1012,8.199370002,9.9510202,5.1210202,10/1/1932,10/1/2022,91,66,Slow decreasing,2.162855297,0.686728785,62,10/1/1932,10/1/1993,Midlands,604.8564659,1001,0.556774822
188,Formby Golf Club,,http://environment.data.gov.uk/hydrology/id/measures/fd196363-58c7-430e-9372-819cdfdc3a19-gw-logged-i-subdaily-mAOD-qualified,329235,409295,53.575447,-3.070172,Triassic Sandstone,Low productivity aquifer,Flow is virtually all through fractures and other discontinuities,10.62845325,qualified,6732,1.279003612,1.922994917,0.479619917,10/1/1998,10/1/2023,26,23,No trend,0.709474042,0.103505314,15,10/1/2003,10/1/2017,North West,679.459842,101,0.312262141
189,South Wonston,http://environment.data.gov.uk/hydrology/id/measures/d08f5277-e545-4015-8d62-60be949afaec-gw-dipped-i-mAOD-qualified,,446015,135655,51.118339,-1.343945,Chalk,Highly productive aquifer,Flow is virtually all through fractures and other discontinuities,118.5975037,qualified,256,64.57933964,69.8075037,53.0275037,10/1/2001,10/1/2023,23,23,Slow increasing,-8.430555556,0.102969003,8,10/1/2005,10/1/2012,Southern,162.9026519,1,0.913951371
190,Frodsham Marsh,,http://environment.data.gov.uk/hydrology/id/measures/b6a9cd9d-5287-47bc-9426-fef516e651d0-gw-logged-i-subdaily-mAOD-qualified,348520,378220,53.298407,-2.773868,Triassic Sandstone,Highly productive aquifer,Significant intergranular flow,10.14060116,qualified,9853,4.110026841,6.92060116,2.89210116,10/1/1986,10/1/2022,37,36,Slow increasing,-10.42849391,0.985658139,23,10/1/1986,10/1/2008,North West,555.1255076,1,0.067748004
191,Coven Lane,http://environment.data.gov.uk/hydrology/id/measures/78c43624-0cfa-4da7-9be5-71cb500b041d-gw-dipped-i-mAOD-qualified,,389865,304415,52.637376,-2.151191,Triassic Sandstone,Highly productive aquifer,Significant intergranular flow,101.8431778,qualified,446,1.796305603,3.4331778,-0.2968222,10/1/1983,10/1/2022,40,40,Slow increasing,-7.368650794,0.731120477,32,10/1/1990,10/1/2021,Midlands,1284.336289,251,0.378571586
192,Burderop Down,http://environment.data.gov.uk/hydrology/id/measures/8f88c682-2ba0-4825-aab0-a2a2eaa0a1a9-gw-dipped-i-mAOD-qualified,,416605,176735,51.489317,-1.762226,Chalk,Highly productive aquifer,Flow is virtually all through fractures and other discontinuities,177.0248108,qualified,381,23.77945647,32.8848108,11.3648108,10/1/1983,10/1/2023,41,36,Slow increasing,-3.0437981,0.071430278,13,10/1/2011,10/1/2023,Thames,146.2944025,51,0.840930686
193,Tilshead High Street,,http://environment.data.gov.uk/hydrology/id/measures/fa3a36f8-9e55-4080-88bd-b26023beab41-gw-logged-i-subdaily-mAOD-qualified,403080,147950,51.230725,-1.957264,Chalk,Highly productive aquifer,Flow is virtually all through fractures and other discontinuities,99.72311401,qualified,9971,12.84904734,21.34061401,-0.133552657,10/1/1995,10/1/2023,29,29,Slow decreasing,2.001968813,0.013630201,23,10/1/2000,10/1/2022,South West,66.13003219,51,0.826331145
194,Cabourne Parva,http://environment.data.gov.uk/hydrology/id/measures/0ed38825-3e82-4495-b48a-74f4187273a6-gw-dipped-i-mAOD-qualified,,515105,403055,53.511573,-0.265691,Spilsby Sandstone,Highly productive aquifer,Flow is virtually all through fractures and other discontinuities,96.34920502,qualified,293,49.96528011,52.31920502,47.61920502,10/1/1992,10/1/2023,32,28,No trend,1.215277778,0.115787874,13,10/1/1998,10/1/2010,Anglian,49.11727891,1001,0.330439245
195,Whiteways Lodge,http://environment.data.gov.uk/hydrology/id/measures/19a4c6d0-5c79-4a12-acd3-59bc3dd61aa7-gw-dipped-i-mAOD-qualified,,500125,110785,50.887883,-0.577903,Chalk,Highly productive aquifer,Flow is virtually all through fractures and other discontinuities,106.0746841,qualified,423,55.67969592,73.7946841,33.7746841,10/1/1991,10/1/2023,33,33,Slow increasing,-5.854292929,0.030243061,33,10/1/1991,10/1/2023,Southern,91.09775179,1001,1.196321978
196,Hall Farm Euston,http://environment.data.gov.uk/hydrology/id/measures/ee09511c-dc22-4768-a85e-67498b1a6056-gw-dipped-i-mAOD-qualified,,589228,277884,52.366316,0.777913,Chalk,Highly productive aquifer,Flow is virtually all through fractures and other discontinuities,21.48988342,qualified,219,3.969609447,5.75988342,2.28988342,10/1/1998,10/1/2023,26,26,Slow decreasing,3.11489899,0.237284454,8,10/1/2000,10/1/2007,Anglian,69.17257387,5001,0.340334854
197,Snape Hill,http://environment.data.gov.uk/hydrology/id/measures/68cc1b49-44b2-43b4-b4d6-9190bcc4cf34-gw-dipped-i-mAOD-qualified,,602237,275240,52.337935,0.967126,Chalk,Highly productive aquifer,Flow is virtually all through fractures and other discontinuities,32.98043823,qualified,229,5.663407662,6.97043823,3.64043823,10/1/1998,10/1/2019,22,22,Slow decreasing,3.526666667,0.276744618,20,10/1/1999,10/1/2018,Anglian,82.95791036,5001,0.375459506
198,Oxford,http://environment.data.gov.uk/hydrology/id/measures/ca3d0164-ee1d-444e-bc6c-04d600498b61-gw-dipped-i-mAOD-qualified,http://environment.data.gov.uk/hydrology/id/measures/ca3d0164-ee1d-444e-bc6c-04d600498b61-gw-logged-i-subdaily-mAOD-qualified,454968,202040,51.714399,-1.205771,Corallian Limestone,Moderately productive aquifer,Flow is virtually all through fractures and other discontinuities,61.6640625,qualified,7356,2.387275921,2.888354167,1.628854167,10/1/2000,10/1/2023,24,24,No trend,-0.597803362,0.146721036,6,10/1/2018,10/1/2023,Thames,1296.275839,251,0.048137346
199,Wooton Lodge,http://environment.data.gov.uk/hydrology/id/measures/fda56aa9-48b4-446d-b021-69f3e22b40e0-gw-dipped-i-mAOD-qualified,,409685,343975,52.993009,-1.857154,Triassic Sandstone,Highly productive aquifer,Significant intergranular flow,117.265274,qualified,928,2.762666241,5.895274,0.485274,10/1/1971,10/1/2022,52,52,No trend,1.809565972,0.306800746,2,10/1/1988,10/1/1989,Midlands,76.27861278,51,0.855217314
200,Wrington,http://environment.data.gov.uk/hydrology/id/measures/efb58ee8-7eb5-4d89-8d2d-9aca8f5c4ea4-gw-dipped-i-mAOD-qualified,,347556,163486,51.367996,-2.754727,Carboniferous Limestone,Moderately productive aquifer,Flow is virtually all through fractures and other discontinuities,92.24687195,qualified,310,49.70422679,66.39687195,18.11687195,10/1/1991,10/1/2023,33,32,Slow increasing,-5.49269425,0.014764625,33,10/1/1991,10/1/2023,South West,185.0656779,51,1.287784661
201,Spotted Cow,http://environment.data.gov.uk/hydrology/id/measures/df2f37c7-237b-4b92-9169-6c965e48e29c-gw-dipped-i-mAOD-qualified,http://environment.data.gov.uk/hydrology/id/measures/df2f37c7-237b-4b92-9169-6c965e48e29c-gw-logged-i-subdaily-mAOD-qualified,412835,196695,51.66888,-1.815801,Oolites,Rocks with essentially no groundwater,,77.45097351,qualified,7726,1.524512358,2.622806843,0.476681843,10/1/2002,10/1/2023,22,22,No trend,-1.441471382,0.534939924,7,10/1/2017,10/1/2023,Thames,102.2323306,251,0.677285292
202,Putteridge Bury,http://environment.data.gov.uk/hydrology/id/measures/88c7e69b-e4b3-4483-a438-0d6f9046cdee-gw-dipped-i-mAOD-qualified,,511700,224560,51.90838,-0.377628,Chalk,Highly productive aquifer,Flow is virtually all through fractures and other discontinuities,168.4252472,qualified,623,58.56860194,63.5952472,49.5052472,10/1/1967,10/1/2023,57,56,Slow decreasing,2.825329359,0.038433589,50,10/1/1968,10/1/2017,Thames,1775.154856,101,0.498976633
203,Owlpen,http://environment.data.gov.uk/hydrology/id/measures/c6879642-6078-45b7-b7da-0ca95ef104e5-gw-dipped-i-mAOD-qualified,,380985,197855,51.679128,-2.276404,Triassic Sandstone,Highly productive aquifer,Flow is virtually all through fractures and other discontinuities,226.9339294,qualified,215,92.32318521,92.9339294,91.6339294,10/1/2003,10/1/2022,20,20,No trend,1.680860806,0.624518107,2,10/1/2015,10/1/2016,Midlands,242.5158152,101,1.074798924
204,Poplar Farm South,http://environment.data.gov.uk/hydrology/id/measures/f3449486-188f-40c2-8bd8-8bdcf9e40967-gw-dipped-i-mAOD-qualified,,503639,435630,53.806634,-0.427667,Chalk,Highly productive aquifer,Flow is virtually all through fractures and other discontinuities,15.55747604,qualified,373,10.04672537,18.89747604,1.14747604,10/1/1989,10/1/2023,35,34,Slow increasing,-11.62337662,0.30830419,35,10/1/1989,10/1/2023,North East,824.7467296,51,0.373476683
205,Tiverton Road,,http://environment.data.gov.uk/hydrology/id/measures/813241d4-9163-4494-a28e-3dbcf9c4dd6e-gw-logged-i-subdaily-mAOD-qualified,301382,107538,50.858913,-3.402528,Unallocated to aquifers,Moderately productive aquifer,Significant intergranular flow,69.8438797,qualified,5332,2.666239284,4.060546367,1.154056783,10/1/2006,10/1/2021,16,16,No trend,-0.584492691,0.049629743,10,10/1/2010,10/1/2019,South West,189.3571967,51,0.143637707
206,Stanford Water,http://environment.data.gov.uk/hydrology/id/measures/79c5b336-a819-4625-9bac-da622edd0102-gw-dipped-i-mAOD-qualified,http://environment.data.gov.uk/hydrology/id/measures/79c5b336-a819-4625-9bac-da622edd0102-gw-logged-i-subdaily-mAOD-qualified,586140,294833,52.519569,0.742053,Chalk,Highly productive aquifer,Flow is virtually all through fractures and other discontinuities,20.78034973,qualified,1274,0.256335691,0.976933063,-0.48965027,10/1/1998,10/1/2019,22,22,Slow decreasing,2.216666667,0.333802858,18,10/1/2002,10/1/2019,Anglian,29.49817885,5001,0.475906726
207,Redlands Farm,,http://environment.data.gov.uk/hydrology/id/measures/df8a0e14-f399-4e49-b9a6-447b5c580fb4-gw-logged-i-subdaily-mAOD-qualified,528412,239022,52.034736,-0.129413,Chalk,Highly productive aquifer,Flow is virtually all through fractures and other discontinuities,61.05342865,qualified,155,12.93355123,14.82342865,9.32342865,10/1/1998,10/1/2019,22,20,No trend,-1.39994213,0.051588003,2,10/1/2011,10/1/2012,Anglian,63.77216833,5001,0.321945768
208,Sharstead Farm,http://environment.data.gov.uk/hydrology/id/measures/20b5dc9a-3930-4641-9d1a-004775735ffc-gw-dipped-i-mAOD-qualified,,577589,163996,51.347292,0.548667,Chalk,Highly productive aquifer,Flow is virtually all through fractures and other discontinuities,77.01148224,qualified,473,65.30924123,69.53148224,57.95148224,10/1/1982,10/1/2022,41,41,No trend,-1.468214286,0.060977477,14,10/1/2006,10/1/2019,Southern,2323.999256,251,0.608409012
209,Pool Bridge,http://environment.data.gov.uk/hydrology/id/measures/439e20e1-ad7a-45d8-8952-3aa4ac877203-gw-dipped-i-mAOD-qualified,,448301,456701,54.00407,-1.264563,Triassic Sandstone,Highly productive aquifer,Significant intergranular flow,13.66442585,qualified,325,2.603933542,3.53442585,1.76442585,10/1/1984,10/1/2011,28,28,No trend,-0.674285714,0.268997063,12,10/1/1995,10/1/2006,North East,57.76638162,251,0.328297934
210,Garboldisham,http://environment.data.gov.uk/hydrology/id/measures/408c78e1-2523-4eab-ad2d-9971c975c49e-gw-dipped-i-mAOD-qualified,,599829,283266,52.410877,0.93661,Chalk,Highly productive aquifer,Flow is virtually all through fractures and other discontinuities,40.04125214,qualified,222,18.01039628,20.35125214,14.91125214,10/1/1998,10/1/2019,22,22,Slow decreasing,5.904761905,0.323216698,22,10/1/1998,10/1/2019,Anglian,58.95287787,5001,0.468682816
211,Bully Hill,http://environment.data.gov.uk/hydrology/id/measures/513871d5-fefb-4ff8-a833-367464342ba2-gw-dipped-i-mAOD-qualified,,517345,392025,53.411983,-0.236042,Spilsby Sandstone,Highly productive aquifer,Flow is virtually all through fractures and other discontinuities,140.6054535,qualified,414,34.36668538,36.1154535,31.8154535,10/1/1973,10/1/2023,51,43,Slow increasing,-2.038655789,0.241156463,51,10/1/1973,10/1/2023,Anglian,46.86580833,1001,0.547074459
212,Wetwang,http://environment.data.gov.uk/hydrology/id/measures/03af12e4-32de-4521-8094-303c5cc093ec-gw-dipped-i-mAOD-qualified,http://environment.data.gov.uk/hydrology/id/measures/03af12e4-32de-4521-8094-303c5cc093ec-gw-logged-i-subdaily-mAOD-qualified,495770,459389,54.021611,-0.539688,Chalk,Highly productive aquifer,Flow is virtually all through fractures and other discontinuities,42.91136932,qualified,12140,20.63696193,26.25886932,8.926468278,10/1/1971,10/1/2023,53,52,No trend,-1.109195767,0.041718411,49,10/1/1975,10/1/2023,North East,36.34496131,51,0.634602269
213,Wootton,,http://environment.data.gov.uk/hydrology/id/measures/aa9bdb5c-4140-4fee-b74f-caef5d28609c-gw-logged-i-subdaily-mAOD-qualified,509745,415445,53.624036,-0.342133,Chalk,Highly productive aquifer,Flow is virtually all through fractures and other discontinuities,37.76089096,no enough data,no enough data,,,,,,,,,,,,,,,,,
214,Donington,http://environment.data.gov.uk/hydrology/id/measures/cf44d3d3-6c85-4bcd-999a-67130243f4a4-gw-dipped-i-mAOD-qualified,,522215,336235,52.909643,-0.184096,Oolites,Rocks with essentially no groundwater,,2.688710928,negative groundwater depth,967,-10.02050314,-0.381289072,-19.11128907,10/1/1972,10/1/2023 0:00,52,49,,,,,,,,,,
215,Houndean Bottom,http://environment.data.gov.uk/hydrology/id/measures/ff553415-a989-4233-af6b-2a3613769adb-gw-dipped-i-mAOD-qualified,http://environment.data.gov.uk/hydrology/id/measures/ff553415-a989-4233-af6b-2a3613769adb-gw-logged-i-subdaily-mAOD-qualified,539286,110151,50.874079,-0.021704,Chalk,Highly productive aquifer,Flow is virtually all through fractures and other discontinuities,39.60405731,qualified,8934,29.3620787,41.34405731,10.18489064,10/1/1976,10/1/2023,48,48,No trend,1.048409191,0.086890667,7,10/1/1982,10/1/1988,Southern,355.4582339,1,1.040841125
216,Northend stud,http://environment.data.gov.uk/hydrology/id/measures/22c1bab8-1a9b-47de-a4ab-b4ab8b5377db-gw-dipped-i-mAOD-qualified,,561311,266770,52.275407,0.362962,Chalk,Highly productive aquifer,Flow is virtually all through fractures and other discontinuities,27.78457069,qualified,252,19.40945164,20.05457069,18.46457069,10/1/1998,10/1/2023,26,24,No trend,0.139520202,0.217122955,2,10/1/2021,10/1/2022,Anglian,337.0170208,5001,0.271851918
217,Barlow Station,http://environment.data.gov.uk/hydrology/id/measures/f6468a6a-4fc5-4be3-a887-999aff91c69e-gw-dipped-i-mAOD-qualified,,463809,428121,53.745555,-1.03393,Triassic Sandstone,Highly productive aquifer,Significant intergranular flow,4.962476254,qualified,557,7.862224908,11.71247625,2.762476254,10/1/1975,10/1/2023,49,49,Sudden downward change,11.08507525,0.889181878,10,10/1/1983,10/1/1992,North East,282.9395294,51,0.203991984
